CNTYNAME,PSTL_CODE,DATE_COL,ELEVATION,UID,SITE_ID,LAT_DD83,LON_DD83
Shawnee,KS,4/30/2013,279.71,1002013,KSRS-1288,39.12843,-95.65402
Pima,AZ,5/6/2013,605.28,1002014,AZR9-0903,32.40882122,-111.1606295
Gila,AZ,5/7/2013,1860.93,1002015,AZSS-1115,34.33749,-111.0138
Clay,KS,5/6/2013,371.31,1002016,KSR9-0910,39.49523,-97.2319
Yavapai,AZ,5/8/2013,1090.26,1002017,AZLS-1055,34.86995,-112.0693
Cowley,KS,5/13/2013,352.17,1002018,KSRS-1270,37.17128,-96.84909
Butler,KS,5/14/2013,390.92,1002019,KSS9-0933,37.84409,-96.85665
Pima,AZ,5/20/2013,605.28,1002020,AZR9-0903,32.40882122,-111.1606295
Henry,KY,5/21/2013,132.31,1002021,KYRM-1006,38.51354,-85.02908
Sedgwick,KS,5/21/2013,411.83,1002022,KSR9-0902,37.8236,-97.46279
Carroll,KY,5/22/2013,128.02,1002023,KYRM-1002,38.68588,-85.17831
Hart,GA,5/21/2013,208.37,1002024,GAS9-0921,34.42897768,-82.90527557
Polk,GA,5/23/2013,369.25,1002025,GAS9-0915,33.92673274,-85.05046408
Westmoreland,PA,5/29/2013,224.9,1002026,PARM-1005,40.59864,-79.75119
Ohio,OH,5/28/2013,192.47,1002027,OHRM-1002,40.14887,-80.70356
Armstrong,PA,5/29/2013,234.28,1002028,PARM-1001,40.76001,-79.54689
Bergen,NJ,6/2/2013,51.81,1002029,NJS9-0908,41.04212,-74.0473
Yolo,CA,6/3/2013,3.08,1002030,CARM-1007,38.43501,-121.5249
Coconino,AZ,5/27/2013,866.86,1002031,AZR9-0902,36.43346223,-111.8640926
Coconino,AZ,5/30/2013,804.45,1002032,AZR9-0901,36.08766461,-111.8706113
San Joaquin,CA,6/4/2013,5.45,1002033,CARM-1003,37.90976,-121.3253
Essex,NJ,6/4/2013,1.17,1002034,NJRO-1019,40.75796,-74.16351
San Jacinto,TX,6/4/2013,17.1,1002035,TXR9-0907,30.57973,-94.99791
Washington,GA,6/4/2013,78.42,1002036,GAS9-0916,32.80115995,-82.92292172
Lancaster,NE,6/5/2013,347.18,1002037,NES9-0934,40.90226,-96.60626
Graham,KS,6/5/2013,644.93,1002038,KSRS-1261,39.35249,-99.83154
Ellis,KS,6/5/2013,517.8,1002039,KSRS-1277,39.04576,-99.04318
Roger Mills,OK,6/3/2013,582.48,1002040,OKR9-0901,35.92582,-99.51525
Tioga,PA,6/5/2013,379.39,1002041,PALS-1091,41.75655,-77.5552
Bergen,NJ,6/5/2013,13.28,1002042,NJLS-1043,40.91547,-74.08986
Kent,DE,6/5/2013,10.46,1002043,DELS-1036,38.85149,-75.66956
Nance,NE,6/4/2013,512.11,1002044,NES9-0923,41.41566,-98.08897
Platte,NE,6/3/2013,496.89,1002045,NES9-0930,41.67311,-97.67665
,WV,6/5/2013,,1002046,WVRF-0001,39.49549798,-78.30457442
Roger Mills,OK,6/4/2013,663.93,1002047,OKS9-0935,35.54539,-99.72271
Tioga,PA,6/6/2013,431.23,1002048,PAS9-0918,41.60763,-77.50377
Caroline,MD,6/6/2013,0.13,1002049,MDS9-0914,38.68908,-75.7699
Pike,NJ,6/6/2013,113.06,1002050,NJR9-0901,41.27242,-74.84022
Harris,TX,6/6/2013,26.06,1002051,TXS9-0926,29.91047,-95.49178
Passaic,NJ,6/7/2013,272.07,1002052,NJSS-1082,41.0507,-74.38407
Morris,NJ,6/9/2013,48.51,1002053,NJRO-1020,40.90745,-74.30466
Ramsey,MN,6/6/2013,243.24,1002054,MNSS-1171,44.94257,-93.02145
Indiana,PA,6/10/2013,275.15,1002056,PAS9-0923,40.52159,-79.39899
Sussex,NJ,6/11/2013,236.38,1002057,NJS9-0909,41.11046,-74.84292
Hall,NE,6/10/2013,577.79,1002058,NER9-0904,40.79966,-98.43775
Mohave,AZ,6/8/2013,439.39,1002059,AZRM-1002,35.9166,-113.3347
Allegany,MD,6/11/2013,242.3,1002060,MDRM-1003,39.44732,-78.97643
Clark,NV,6/10/2013,439.55,1002061,NVRM-1001,36.73991,-114.206
Tillman,OK,6/11/2013,396.29,1002062,OKR9-0909,34.59159,-99.02375
Comanche,OK,6/10/2013,380.55,1002063,OKS9-0931,34.83934,-98.306
Dawson,NE,6/11/2013,738.97,1002064,NELS-1074,40.84166,-99.74438
Forest,PA,6/11/2013,355.01,1002065,PALS-1090,41.51621,-79.32288
Osage,KS,6/10/2013,320.17,1002066,KSRS-1340,38.43482,-95.74648
Grant,ND,6/11/2013,669.89,1002067,NDSS-1103,46.31488,-101.6123
Dallas,TX,6/12/2013,122.73,1002068,TXSS-1216,32.78727,-96.87091
Cooke,TX,6/11/2013,232.4,1002069,TXS9-0928,33.75841,-97.29398
Wilson,KS,6/11/2013,234.96,1002070,KSR9-0906,37.39754,-95.67977
,WI,6/12/2013,,1002071,WIRF-0011,44.01212428,-89.78823892
McKean,PA,6/12/2013,577.83,1002072,PAS9-0922,41.65698,-78.61148
Sibley,MN,6/11/2013,281.99,1002073,MNS9-0933,44.51765,-94.02858
Middlesex,NJ,6/12/2013,1.25,1002074,NJR9-0902,40.5089,-74.46615
Greer,OK,6/12/2013,454.46,1002075,OKRO-1089,34.88904,-99.37742
Windham,VT,6/11/2013,65.86,1002076,VTR9-0901,42.79337,-72.52477
,WI,6/13/2013,,1002078,WIRF-0006,44.19707222,-90.73066755
Emmons,ND,6/12/2013,523.68,1002079,NDLS-1055,46.27863,-100.2429
Custer,CO,6/11/2013,2409.47,1002080,COS9-0934,38.06736595,-105.08476
Ventura,CA,5/29/2013,85.42,1002081,CAR9-0902,34.35671322,-119.0198808
Dallas,TX,6/13/2013,127.11,1002082,TXS9-0936,32.77924,-96.55449
Le Sueur,MN,6/12/2013,319.33,1002083,MNS9-0934,44.40724,-93.61883
Murray,MN,6/13/2013,433.42,1002084,MNSS-1175,44.17742,-95.60563
Las Animas,CO,6/13/2013,1327.77,1002085,COR9-0903,37.60461992,-103.6059701
Yuma,CO,6/14/2013,1085.48,1002086,COS9-0926,39.63865572,-102.1136539
Jefferson,CO,6/16/2013,1740.37,1002088,COS9-0929,39.54923086,-105.1317434
Lamoille,VT,6/17/2013,192.71,1002089,VTRS-1007,44.43994,-72.71384
Frederick,MD,6/17/2013,75.51,1002090,MDRO-1018,39.43248,-77.37975
,MO,6/18/2013,,1002091,MORF-0009,39.65361097,-94.22593174
Floyd,GA,6/18/2013,206.8,1002092,GAS9-0922,34.36679167,-85.08705529
Morton,ND,6/18/2013,521.29,1002093,NDR9-0907,46.79972,-101.1068
Roger Mills,OK,6/18/2013,582.48,1002094,OKR9-0901,35.92582,-99.51525
Hennepin,MN,6/18/2013,255.59,1002095,MNR9-0912,45.23426,-93.49636
,MI,6/18/2013,,1002096,MIRF-0004,44.6094056,-84.45637064
Frederick,MD,6/18/2013,61.78,1002097,MDRO-1015,39.26903,-77.44567
Trimble,KY,6/18/2013,137.04,1002098,KYS9-0919,38.62014,-85.41854
Osborne,KS,6/17/2013,449.02,1002099,KSR9-0904,39.42728,-98.53949
Custer,OK,6/18/2013,471.71,1002100,OKR9-0905,35.53,-99.13021
,MO,6/19/2013,,1002101,MORF-0004,38.47136765,-93.61712909
Harrison,OH,6/18/2013,295.17,1002102,OHS9-0919,40.37315,-81.21327
Shelby,AL,6/19/2013,152.1,1002103,ALSS-1063,33.35583,-86.60633
,MI,6/19/2013,,1002104,MIRF-0003,44.59138715,-85.07703432
Columbiana,OH,6/19/2013,309.19,1002105,OHS9-0914,40.70663,-80.79918
Buffalo,SD,6/19/2013,473.61,1002106,SDSS-1190,43.958,-99.04698
Orange,NH,6/19/2013,120.67,1002107,NHR9-0903,43.86581,-72.17822
Hartford,CT,6/19/2013,33.43,1002108,CTSS-1077,42.01009,-72.63232
Morgan,OH,6/18/2013,240.22,1002109,OHLS-1071,39.61589,-81.92661
Park,CO,6/18/2013,2853.49,1002110,COS9-0924,39.07659753,-106.0063979
Cherokee,GA,6/19/2013,325.25,1002111,GAS9-0919,34.30314742,-84.47051375
Mercer,ND,6/20/2013,593.24,1002112,NDSS-1106,47.18226,-101.7943
,UT,6/20/2013,,1002113,UTRF-0004,40.49275296,-112.5815753
Preble,OH,6/20/2013,254.37,1002114,OHSS-1125,39.57122,-84.66835
Tuscarawas,OH,6/20/2013,272.55,1002115,OHRO-1031,40.52083,-81.30616
,MI,6/20/2013,,1002116,MIRF-0002,44.14272478,-86.01193089
,MO,6/20/2013,,1002117,MORF-0005,40.11645947,-92.7620827
Ingham,MI,6/19/2013,264.57,1002118,MIS9-0923,42.5695,-84.5928
Kent,MI,6/20/2013,216.91,1002119,MISS-1136,42.82857,-85.6665
Harris,TX,6/20/2013,26.06,1002120,TXS9-0926,29.91047,-95.49178
Frederick,MD,6/21/2013,63.23,1002121,MDRO-1014,39.31389,-77.4119
Coosa,AL,6/20/2013,160.19,1002122,ALS9-0918,32.93231611,-86.36246869
Bibb,AL,6/21/2013,123.7,1002123,ALSS-1064,33.11467,-87.11905
Olmsted,MN,6/20/2013,365.89,1002124,MNS9-0929,44.04151,-92.33874
Elko,NV,6/18/2013,1688.18,1002125,NVS9-0921,40.7413,-115.5544
Elko,NV,6/20/2013,1581.47,1002126,NVR9-0920,41.88666,-114.6866
Licking,OH,6/19/2013,282.89,1002127,OHS9-0922,39.97946,-82.38165
Pacific,WA,6/19/2013,74.57,1002128,WASS-1140,46.30527,-123.781
Conejos,CO,6/19/2013,2390.66,1002129,COS9-0925,37.06135096,-105.982904
,MI,6/21/2013,,1002130,MIRF-0005,43.43006008,-85.71987694
Grays Harbor,WA,6/20/2013,195.01,1002131,WAS9-0919,46.83757,-123.3863
Seneca,OH,6/23/2013,226.88,1002132,OHR9-0907,41.02829,-83.21295
Tuscarawas,OH,6/23/2013,281.0,1002133,OHRO-1035,40.63326,-81.54266
Mineral,CO,6/20/2013,2685.95,1002134,COS9-0922,37.71406867,-106.8381694
Morgan,OH,6/20/2013,277.99,1002135,OHS9-0915,39.74567,-81.84162
Paulding,OH,6/24/2013,208.1,1002136,OHRM-1001,41.2338,-84.59052
Northumberland,PA,6/24/2013,128.99,1002137,PAR9-0910,40.88572,-76.80151
Slope,ND,6/24/2013,826.32,1002138,NDS9-0938,46.41794,-103.5124
Dickinson,KS,6/24/2013,386.14,1002139,KSRS-1269,38.70221,-96.98346
,VT,6/24/2013,,1002140,VTRF-0002,44.8065868,-72.13678313
Orleans,VT,6/24/2013,494.17,1002141,VTRS-1004,44.78541,-72.02854
Woodruff,AR,6/24/2013,63.16,1002142,ARS9-0946,35.34665559,-91.32230048
Randolph,AL,6/24/2013,265.42,1002143,ALS9-0916,33.26014982,-85.50357137
Summit,OH,6/24/2013,203.81,1002144,OHRO-1036,41.24697,-81.55581
New Castle,DE,6/24/2013,26.46,1002146,DESS-1085,39.72867,-75.68322
,KS,6/25/2013,,1002161,KSRF-0004,39.10730994,-96.6072498
Pennington,MN,6/25/2013,343.31,1002162,MNSS-1169,48.10913,-96.11106
Montrose,CO,6/24/2013,2441.79,1002164,COS9-0920,38.55320856,-107.5189582
Cooke,TX,6/25/2013,232.4,1002165,TXS9-0928,33.75841,-97.29398
Custer,OK,6/25/2013,468.71,1002166,OKR9-0913,35.81455,-98.70209
Pondera,MT,6/25/2013,1138.88,1002167,MTS9-0934,48.14321,-112.1246
Garfield,UT,6/25/2013,2258.35,1002168,UTRO-1035,37.81354,-112.0533
Elko,NV,6/25/2013,2119.16,1002169,NVSS-1104,41.95777,-115.8638
Mason,KY,6/25/2013,206.64,1002170,KYS9-0924,38.60545,-83.95593
Riley,KS,6/25/2013,332.32,1002171,KSRS-1336,39.10386,-96.49063
Perry,AR,6/25/2013,78.79,1002172,ARRM-1004,35.0758,-92.63969
Bowman,ND,6/25/2013,815.29,1002173,NDR9-0910,45.95829,-103.1202
,WI,6/25/2013,,1002174,WIRF-0008,45.88327363,-90.68102965
Johnston,OK,6/25/2013,253.29,1002175,OKS9-0939,34.34592,-96.69948
Meade,SD,6/25/2013,991.72,1002176,SDS9-0938,44.15643,-103.2287
Shelby,AL,6/25/2013,123.71,1002177,ALR9-0904,33.41281268,-86.75189942
,KS,6/26/2013,,1002178,KSRF-0002,37.78673008,-96.43021632
Kittitas,WA,6/25/2013,799.5,1002179,WALS-1070,47.09141,-120.3099
Northumberland,PA,6/26/2013,134.1,1002180,PARM-1002,41.06235,-76.85619
Kane,UT,6/26/2013,2558.18,1002181,UTSS-1107,37.43042,-112.3516
Darke,OH,6/26/2013,300.6,1002182,OHSS-1124,40.31965,-84.63034
Teton,MT,6/26/2013,1286.71,1002183,MTS9-0941,47.72172,-112.4911
Adams,ND,6/26/2013,798.17,1002184,NDSS-1105,45.98051,-102.8498
Allegany,MD,6/26/2013,137.44,1002185,MDR9-0905,39.62421,-78.42927
Denton,TX,6/26/2013,170.75,1002186,TXR9-0903,33.05566,-97.25306
,WI,6/26/2013,,1002187,WIRF-0002,45.48286123,-91.25274334
Washington,OR,6/26/2013,37.73,1002188,ORR9-0912,45.48478,-122.9599
Elko,NV,6/26/2013,1603.38,1002189,NVS9-0926,41.8773,-115.6285
Ashtabula,OH,6/26/2013,213.46,1002190,OHS9-0920,41.79621,-80.91776
Kingfisher,OK,6/26/2013,304.83,1002191,OKR9-0908,35.92491,-97.86391
Johnston,OK,6/26/2013,191.02,1002192,OKR9-0911,34.22208,-96.70688
Pennington,SD,6/26/2013,1851.87,1002193,SDSS-1191,43.98931,-103.7802
Carroll,KY,6/26/2013,167.59,1002194,KYSS-1080,38.68525,-85.24408
Caledonia,VT,6/26/2013,343.22,1002204,VTS9-0917,44.62931,-72.03325
,VA,6/26/2013,,1002205,VARF-0004,38.17742393,-79.37615276
Lake of the Woods,MN,6/26/2013,370.75,1002206,MNS9-0932,48.65556,-94.98697
Johnson,TX,6/27/2013,229.79,1002207,TXS9-0940,32.49662,-97.35227
Frederick,MD,6/27/2013,66.9,1002208,MDRM-1004,39.31512,-77.65539
Ascension,LA,6/26/2013,0.7,1002209,LAR9-0915,30.32848,-90.84382
Mesa,CO,6/26/2013,2517.68,1002210,COLS-1060,39.16392,-107.8062
Teton,MT,6/27/2013,1218.95,1002211,MTLS-1140,47.74657,-112.3342
Hale,AL,6/27/2013,89.27,1002212,ALS9-0919,32.91383014,-87.5326477
Rio Blanco,CO,6/27/2013,1885.3,1002213,COS9-0928,39.80551126,-108.6537634
,KS,6/27/2013,,1002214,KSRF-0003,38.49227378,-96.58310747
Gunnison,CO,6/25/2013,1984.45,1002215,COLS-1064,38.93422,-107.3195
Oakland,MI,6/25/2013,249.35,1002216,MIS9-0934,42.54559,-83.31093
Garfield,UT,6/27/2013,2284.72,1002217,UTR9-0904,37.74306,-112.0986
Pointe Coupee,LA,6/24/2013,5.01,1002218,LALS-1038,30.57775,-91.52159
,MI,6/27/2013,,1002219,MIRF-0001,45.36106305,-87.73632983
Rockingham,NH,6/27/2013,105.02,1002220,NHS9-0912,43.14515,-71.18604
St. Louis,MN,6/27/2013,396.29,1002221,MNS9-0935,48.03553,-92.90707
Clackamas,OR,6/27/2013,865.62,1002222,ORS9-0932,45.21177,-121.8471
Pope,AR,6/27/2013,149.09,1002223,ARRO-1021,35.54235,-93.16002
Elko,NV,6/27/2013,1699.63,1002224,NVLS-1046,41.55244,-116.196
Jasper,IN,6/27/2013,198.02,1002225,INSS-1089,41.24414,-87.11566
Macomb,MI,6/26/2013,180.61,1002226,MIS9-0924,42.55559,-82.98477
,WI,6/28/2013,,1002227,WIRF-0003,45.73897324,-89.52684568
Bibb,AL,6/28/2013,71.19,1002228,ALRM-1003,33.01342,-87.08608
Rio Blanco,CO,6/28/2013,1677.2,1002229,COR9-0901,39.98812383,-108.7779574
Paulding,OH,6/30/2013,212.39,1002230,OHRM-1005,41.19717,-84.70796
Grays Harbor,WA,6/30/2013,31.93,1002231,WALS-1072,47.13147,-123.7646
Franklin,AL,6/30/2013,149.35,1002232,ALS9-0922,34.50734375,-88.05036704
Caroline,MD,7/1/2013,0.13,1002233,MDS9-0914,38.68908,-75.7699
Defiance,OH,7/1/2013,222.91,1002235,OHSS-1123,41.39327,-84.29579
Colfax,NE,7/1/2013,418.73,1002236,NES9-0928,41.39956,-97.15694
Kay,OK,7/1/2013,314.57,1002237,OKR9-0902,36.958,-97.42192
Lewis,WA,7/1/2013,379.86,1002238,WAS9-0918,46.53776,-122.0414
Lafourche,LA,7/1/2013,0.3,1002239,LAS9-0944,29.89733,-90.68334
New Castle,DE,7/1/2013,39.99,1002240,DESS-1081,39.81091,-75.56715
Lancaster,NE,7/2/2013,347.18,1002241,NES9-0934,40.90226,-96.60626
Osborne,KS,7/1/2013,449.02,1002242,KSR9-0904,39.42728,-98.53949
Crook,OR,7/2/2013,883.5,1002243,ORR9-0910,44.24753,-120.8595
Dunn,ND,7/2/2013,646.32,1002244,NDS9-0941,47.16789,-102.6458
,AL,7/1/2013,,1002245,ALRF-0003,34.08128827,-88.02124812
Elmore,ID,7/1/2013,749.18,1002246,IDRM-1001,42.9393,-115.7014
Owyhee,ID,7/2/2013,1207.14,1002247,IDR9-0903,42.525315,-115.490775
Minidoka,ID,7/3/2013,1261.6,1002248,IDR9-0901,42.5756575,-113.6292099
Kingfisher,OK,7/2/2013,324.76,1002249,OKR9-0906,36.05503,-98.12901
Lander,NV,7/2/2013,1599.43,1002250,NVLS-1048,40.19137,-117.2531
Lander,NV,7/3/2013,1870.1,1002251,NVRO-1020,39.19519,-117.3465
Sussex,NJ,7/7/2013,236.38,1002252,NJS9-0909,41.11046,-74.84292
Boise,ID,7/7/2013,1039.87,1002253,IDRO-1034,43.69342,-115.6677
Mercer,ND,7/8/2013,637.67,1002255,NDS9-0943,47.09669,-101.8017
Pike,NJ,7/8/2013,113.06,1002256,NJR9-0901,41.27242,-74.84022
Boise,ID,7/8/2013,812.08,1002257,IDR9-0906,43.96347066,-116.1891543
Morgan,OH,7/8/2013,277.99,1002258,OHS9-0915,39.74567,-81.84162
Macomb,MI,7/8/2013,180.61,1002259,MIS9-0924,42.55559,-82.98477
Wayne,OH,7/8/2013,286.86,1002260,OHS9-0923,40.75689,-82.11641
Reno,KS,7/8/2013,485.18,1002261,KSR9-0903,38.12609,-98.07809
Buchanan,KS,7/8/2013,239.38,1002262,KSRS-1316,39.57579,-95.07163
Lincoln,OK,7/8/2013,266.11,1002263,OKS9-0932,35.74931,-97.13433
Columbia,WI,7/1/2013,266.7,1002264,WIS9-0931,43.45535,-89.2491
Grant,WI,7/2/2013,274.65,1002265,WISS-1162,42.85481,-90.52929
Ottawa,MI,7/9/2013,183.65,1002266,MIS9-0930,42.80947,-86.17005
East Feliciana,LA,7/8/2013,34.94,1002267,LASS-1050,30.7948,-91.20539
Oliver,ND,7/9/2013,543.04,1002268,NDS9-0940,47.04646,-101.1047
Bergen,NJ,7/9/2013,51.81,1002269,NJS9-0908,41.04212,-74.0473
Payne,OK,7/9/2013,255.95,1002270,OKRM-1002,35.96767,-97.12551
Apache,AZ,7/9/2013,2695.39,1002271,AZSS-1106,33.89019,-109.472
Keya Paha,NE,7/8/2013,670.76,1002272,NES9-0932,42.79716,-100.0455
Cherry,NE,7/9/2013,788.9,1002273,NES9-0921,42.8028,-100.5568
Petroleum,MT,7/9/2013,837.14,1002274,MTR9-0913,47.01519,-108.165
Windham,VT,7/9/2013,258.09,1002275,VTS9-0910,43.04999,-72.72147
Columbiana,OH,7/9/2013,309.19,1002276,OHS9-0914,40.70663,-80.79918
Goodhue,MN,7/8/2013,204.18,1002277,MNRM-1003,44.56766,-92.48587
Runnels,TX,7/9/2013,503.93,1002278,TXR9-0915,31.76248,-100.1405
Pushmataha,OK,7/8/2013,124.54,1002279,OKRM-1008,34.22702,-95.49317
Franklin,AR,7/9/2013,239.94,1002280,ARR9-0904,35.67817479,-93.74408948
Fresno,CA,7/9/2013,461.62,1002281,CAS9-0914,36.96370513,-119.2314147
Doniphan,KS,7/9/2013,251.93,1002282,KSR9-0901,39.87204,-95.02724
Trimble,KY,7/9/2013,137.04,1002283,KYS9-0919,38.62014,-85.41854
Custer,SD,7/9/2013,1457.43,1002284,SDSS-1188,43.82918,-103.4591
,WY,7/8/2013,,1002285,WYRF-0001,41.26388485,-105.3196786
Boulder,CO,7/9/2013,1520.51,1002286,COS9-0923,40.15970306,-105.1184267
Greenlee,AZ,7/10/2013,1841.54,1002287,AZS9-0929,33.67588001,-109.0840924
Grant,ND,7/10/2013,628.32,1002288,NDLS-1059,46.24855,-101.5315
Bergen,NJ,7/10/2013,-0.17,1002289,NJRM-1001,40.84438,-73.95545
Humboldt,NV,7/8/2013,1406.19,1002290,NVRO-1027,41.52683,-117.4287
Douglas,NV,7/10/2013,1415.43,1002291,NVR9-0910,39.08216,-119.7573
DeKalb,GA,7/10/2013,271.33,1002292,GAS9-0924,33.91141432,-84.31220042
Cherry,NE,7/10/2013,727.38,1002293,NES9-0927,42.89817,-100.4854
Steuben,NY,7/10/2013,316.9,1002294,NYLS-1125,42.19853,-77.4111
Larimer,CO,7/10/2013,1956.16,1002295,COS9-0932,40.89838315,-105.3801509
Van Buren,MI,7/10/2013,190.91,1002296,MILS-1059,42.32681,-86.13682
Pennington,SD,7/10/2013,1562.52,1002297,SDLS-1114,44.06162,-103.6927
Runnels,TX,7/10/2013,486.78,1002298,TXRM-1011,31.73042,-99.93923
Crawford,WI,7/10/2013,321.51,1002299,WIS9-0923,43.14323,-91.02181
Valley,ID,7/9/2013,1431.87,1002300,IDR9-0910,44.39606896,-116.0460788
Payette,ID,7/10/2013,656.59,1002303,IDRO-1030,44.03468,-116.917
Okanogan,WA,7/9/2013,354.0,1002304,WAR9-0901,48.95608,-119.6933
Sweet Grass,MT,7/10/2013,1453.37,1002305,MTS9-0923,45.83769,-110.0458
Fairfield,CT,7/10/2013,132.16,1002306,CTS9-0917,41.39886615,-73.38664778
New Castle,DE,7/10/2013,48.23,1002307,DES9-0912,39.8061351,-75.46540517
Kent,RI,7/10/2013,31.05,1002308,RISS-1083,41.60442,-71.49621
Windham,VT,7/10/2013,65.86,1002309,VTR9-0901,42.79337,-72.52477
Johnson,AR,6/26/2013,183.31,1002310,ARLS-1047,35.56233,-93.28855
Spalding,GA,7/11/2013,201.63,1002311,GAS9-0917,33.31357506,-84.17306649
Hot Spring,AR,7/11/2013,133.63,1002312,ARSS-1090,34.48397,-92.84216
Yell,AR,7/10/2013,106.85,1002313,ARR9-0906,34.92887774,-93.36068491
Worcester,MD,7/11/2013,3.96,1002314,MDLS-1041,38.33388,-75.32309
Hunterdon,NJ,7/11/2013,66.07,1002315,NJSS-1081,40.44914,-74.91378
Meagher,MT,7/9/2013,1490.58,1002316,MTR9-0909,46.45775,-110.3713
Park,MT,7/8/2013,1757.99,1002317,MTS9-0924,46.16677,-110.5491
Middlesex,NJ,7/11/2013,1.25,1002318,NJR9-0902,40.5089,-74.46615
Buffalo,MN,7/10/2013,198.2,1002319,MNRM-1012,44.13431,-91.73915
Larimer,CO,7/11/2013,2711.22,1002320,COSS-1099,40.74967,-105.852
Carroll,NH,7/11/2013,182.62,1002321,NHSS-1070,43.83178,-71.005
Buffalo,MN,7/11/2013,198.2,1002322,MNR9-0901,44.13244,-91.72952
Wallowa,OR,7/11/2013,628.56,1002323,ORLS-1104,45.8587,-117.6355
Wallowa,OR,7/10/2013,685.03,1002324,ORRM-1001,45.7653,-117.7599
Howard,MD,7/12/2013,83.98,1002325,MDLS-1038,39.18863,-76.85368
Albany,WY,7/12/2013,2468.84,1002326,WYS9-0928,41.0327,-105.6756
Burlington,NJ,7/12/2013,35.67,1002327,NJSS-1087,40.04303,-74.60168
St. Mary,LA,7/11/2013,0.65,1002328,LARO-1019,29.67975,-91.28559
,WY,7/10/2013,,1002329,WYRF-0004,41.65239961,-106.313599
St. Lawrence,NY,7/14/2013,91.57,1002330,NYRO-1052,44.62279,-75.22698
Gloucester,NJ,7/14/2013,0.0,1002331,NJLS-1042,39.83842155,-75.3539336
Carbon,WY,7/15/2013,2367.47,1002332,WYS9-0924,41.38215,-107.2276
Carbon,WY,7/14/2013,2336.8,1002333,WYLS-1088,41.60117,-106.4195
St. Lawrence,NY,7/15/2013,280.46,1002334,NYS9-0936,44.49954,-74.88522
Idaho,ID,7/15/2013,569.59,1002335,IDRM-1022,45.41502,-116.1287
Dawes,NE,7/15/2013,1191.62,1002336,NER9-0902,42.44907,-102.999
Idaho,ID,7/14/2013,591.18,1002337,IDRM-1019,45.43318,-115.9813
Corson,SD,7/15/2013,549.31,1002338,SDR9-0911,45.76411,-100.6831
Trinity,CA,7/15/2013,1407.95,1002339,CAS9-0915,40.80247233,-122.9300163
Nevada,CA,7/10/2013,851.01,1002340,CAS9-0930,39.2998874,-120.9695012
Emmet,MI,7/15/2013,186.16,1002341,MIS9-0929,45.65369,-84.99924
Creek,OK,7/15/2013,216.76,1002342,OKRO-1088,35.68552,-96.41488
Buchanan,KS,7/15/2013,245.14,1002343,KSR9-0905,39.72624,-94.91122
Glenn,CA,7/15/2013,22.38,1002344,CARM-1010,39.50076,-121.9976
Camden,NJ,7/15/2013,0.12,1002345,NJLS-1041,39.87754,-75.13151
Sierra,CA,7/11/2013,1029.25,1002346,CAS9-0916,39.4667372,-120.9644497
Sussex,DE,7/15/2013,0.0,1002347,DER9-0903,38.61816614,-75.63092164
Albany,WY,7/16/2013,2065.87,1002348,WYS9-0931,42.13291,-106.0715
St. Lawrence,NY,7/16/2013,53.35,1002349,NYRO-1049,44.91335,-74.93946
St. Mary,LA,7/15/2013,0.87,1002350,LARO-1020,29.76361,-91.44424
Pottawatomie,KS,7/16/2013,301.21,1002351,KSR9-0908,39.25252,-96.3266
Scott,MN,7/15/2013,213.32,1002352,MNR9-0907,44.79956,-93.53312
Hennepin,MN,7/16/2013,213.32,1002353,MNRM-1010,44.80982,-93.49899
Slope,ND,7/16/2013,826.32,1002354,NDS9-0938,46.41794,-103.5124
Corson,SD,7/16/2013,503.27,1002355,SDR9-0901,45.65636,-100.8508
Noble,OK,7/16/2013,269.44,1002356,OKRM-1006,36.58577,-97.0339
Ashtabula,OH,7/16/2013,240.91,1002357,OHS9-0916,41.79363,-80.82266
Elko,NV,7/16/2013,1535.51,1002358,NVR9-0905,40.8147,-115.8061
Shasta,CA,7/16/2013,120.88,1002359,CARM-1011,40.47343,-122.3032
Douglas,OR,7/16/2013,13.7,1002360,ORRM-1008,43.68129,-123.6684
Cooke,TX,7/16/2013,200.9,1002361,TXS9-0937,33.48298,-97.17612
Merrimack,NH,7/16/2013,102.61,1002362,NHRO-1033,43.25604,-71.6225
Clearwater,ID,7/16/2013,674.01,1002363,IDR9-0908,46.66522964,-115.5475071
Chippewa,MI,7/16/2013,209.14,1002364,MISS-1133,46.68717,-85.16703
Marinette,WI,7/16/2013,254.75,1002365,WIS9-0928,45.49626,-87.98249
Le Flore,OK,7/15/2013,250.31,1002366,OKS9-0938,34.53126,-94.71442
Wahkiakum,WA,7/16/2013,1.14,1002367,WAS9-0920,46.22895,-123.393
Dawson,NE,7/17/2013,697.82,1002368,NERM-1003,40.6786,-99.48502
Siskiyou,CA,7/16/2013,845.36,1002369,CAS9-0921,41.31835723,-123.0505146
Nemaha,KS,7/17/2013,349.81,1002370,KSRS-1268,39.73549,-95.82575
Allegany,MD,7/17/2013,137.44,1002371,MDR9-0905,39.62421,-78.42927
Le Flore,OK,7/17/2013,129.95,1002372,OKLS-1181,35.14815,-94.7019
Denton,TX,7/17/2013,170.75,1002373,TXR9-0903,33.05566,-97.25306
Eureka,NV,7/17/2013,1436.67,1002374,NVRO-1024,40.57471,-116.4405
San Juan,UT,7/17/2013,1357.11,1002375,UTR9-0901,37.22372,-109.2087
Broadwater,MT,7/17/2013,1238.53,1002376,MTR9-0920,45.90936,-111.5669
Lane,OR,7/17/2013,347.12,1002377,ORR9-0903,44.16795,-122.2497
Butte,SD,7/17/2013,879.96,1002378,SDR9-0909,44.81715,-103.6939
Creek,OK,7/17/2013,234.91,1002379,OKS9-0936,35.96545,-96.36807
Jackson,CO,7/17/2013,2897.84,1002380,COS9-0938,40.62352247,-105.9780085
Windsor,VT,7/17/2013,259.13,1002381,VTS9-0909,43.90351,-72.82532
,PA,7/17/2013,,1002382,PARF-0004,41.28868522,-79.84386289
Sussex,DE,7/17/2013,0.34,1002387,DERO-1001,38.66194,-75.56498
Litchfield,CT,7/17/2013,160.52,1002388,CTS9-0921,41.88046368,-73.49701751
St. Lawrence,NY,7/18/2013,227.36,1002389,NYLS-1123,44.50581,-75.04351
Jewell,KS,7/15/2013,487.32,1002390,KSS9-0932,39.8978,-98.15768
Cascade,MT,7/18/2013,1254.32,1002391,MTS9-0937,47.11537,-111.3768
New Hanover,NC,7/16/2013,0.34,1002392,NCRO-1016,34.3619,-77.93378
St. Lawrence,NY,7/17/2013,72.27,1002393,NYRO-1056,44.84435,-75.08576
Cabarrus,NC,7/18/2013,185.63,1002394,NCS9-0920,35.39708,-80.7245
Polk,MN,7/18/2013,231.23,1002395,MNR9-0908,45.56509,-92.7953
Hennepin,MN,7/17/2013,209.59,1002396,MNRO-1052,44.88838,-93.17842
Sullivan,NH,7/18/2013,87.28,1002397,NHR9-0905,43.35118,-72.39344
Sacramento,CA,7/17/2013,11.0,1002398,CAR9-0912,38.57234221,-121.3577452
Eureka,NV,7/18/2013,1408.35,1002399,NVRM-1006,40.70241,-116.5235
Lane,OR,7/18/2013,120.14,1002400,ORR9-0911,44.06547,-123.1063
Adams,ND,7/17/2013,769.92,1002401,NDRO-1022,46.21593,-102.6037
Hettinger,ND,7/18/2013,750.47,1002402,NDRM-1001,46.45899,-102.6568
Ashtabula,OH,7/17/2013,295.42,1002403,OHLS-1069,41.51412,-80.73366
Whatcom,WA,7/18/2013,335.33,1002404,WAS9-0921,48.68136,-121.72
Grand,CO,7/19/2013,2967.36,1002405,COS9-0937,39.81050134,-106.0032326
Wyandotte,KS,7/19/2013,228.22,1002406,KSR9-0911,39.06027,-94.84195
Alexander,NC,7/19/2013,256.31,1002407,NCRM-1002,35.82241,-81.18403
Oswego,NY,7/21/2013,288.51,1002408,NYSS-1241,43.5808,-75.95908
Ashland,OH,7/19/2013,296.69,1002409,OHLS-1074,40.86244,-82.24619
Sandusky,OH,7/21/2013,173.13,1002410,OHRO-1033,41.44082,-83.03139
Montrose,CO,7/21/2013,2441.79,1002411,COS9-0920,38.55320856,-107.5189582
Eagle,CO,7/22/2013,3276.82,1002412,COS9-0921,39.36936448,-106.4524344
Lewis,NY,7/22/2013,295.78,1002413,NYLS-1124,43.66568,-75.29471
Cameron,PA,7/22/2013,486.4,1002414,PAS9-0919,41.48847,-78.13261
Chippewa,WI,7/22/2013,291.58,1002415,WIS9-0927,44.94776,-91.55695
,WY,7/22/2013,,1002416,WYRF-0007,41.61615353,-104.6169018
Huron,OH,7/22/2013,279.56,1002417,OHSS-1122,41.02658,-82.78515
Lonoke,AR,7/22/2013,67.03,1002418,ARLS-1045,34.78806,-91.87005
Sumner,KS,7/22/2013,356.85,1002419,KSR9-0912,37.33922,-97.25535
Story,IA,7/22/2013,319.79,1002420,IASS-1090,42.10432,-93.35417
,IL,7/22/2013,,1002421,ILRF-0001,37.47427641,-88.54386597
Ripley,IN,7/23/2013,273.2,1002423,INS9-0918,39.18727,-85.3494
Lewis,NY,7/23/2013,221.85,1002424,NYRO-1051,43.80096,-75.46669
Apache,AZ,7/23/2013,2079.84,1002425,AZRM-1003,34.16182,-109.3017
,IA,7/23/2013,,1002426,IARF-0003,43.44451677,-92.61206048
Sutter,CA,7/22/2013,7.68,1002427,CAR9-0904,38.80836237,-121.6352071
Dubuque,IA,7/22/2013,304.96,1002428,IASS-1088,42.40356,-91.06747
Ogemaw,MI,7/23/2013,310.83,1002429,MIS9-0927,44.31522,-84.21131
Fall River,SD,7/23/2013,1023.06,1002430,SDRM-1007,43.27803,-103.7202
Humboldt,CA,7/23/2013,108.56,1002431,CAS9-0929,40.10650954,-123.793817
Clark,WI,7/23/2013,380.98,1002432,WIS9-0929,44.91029,-90.49366
Benton,WA,7/23/2013,149.81,1002433,WAR9-0908,46.27117,-119.5705
Geauga,OH,7/23/2013,351.38,1002434,OHSS-1127,41.38763,-81.26877
Guthrie,IA,7/23/2013,313.75,1002435,IAS9-0924,41.58755699,-94.39743921
Meagher,MT,7/23/2013,1855.57,1002436,MTS9-0932,46.58559,-111.2657
Arkansas,AR,7/24/2013,53.94,1002437,ARRO-1024,34.37759,-91.62511
Wright,MN,7/23/2013,274.43,1002438,MNRM-1002,45.32221,-93.8161
,KS,7/23/2013,,1002439,KSRF-0006,39.56784284,-96.21844372
Champaign,IL,7/23/2013,199.78,1002440,ILLS-1071,40.1623,-88.02744
Hennepin,MN,7/22/2013,225.16,1002442,MNRM-1006,44.9773,-93.24067
St. Landry,LA,7/22/2013,5.23,1002443,LAS9-0948,30.60083,-91.87677
Audrain,MO,7/22/2013,220.53,1002444,MOS9-0932,39.21987,-91.92117
Jefferson,NY,7/24/2013,93.0,1002445,NYR9-0906,44.25928,-75.76743
,WY,7/23/2013,,1002446,WYRF-0006,41.44492276,-107.4568088
Fayette,IN,7/24/2013,280.48,1002447,INSS-1088,39.71464,-85.18634
Corson,SD,7/19/2013,679.74,1002448,SDRO-1072,45.54624,-101.8726
Corson,SD,7/17/2013,637.28,1002449,SDS9-0941,45.56323,-101.5487
Mitchell,IA,7/24/2013,315.26,1002450,IARO-1013,43.22527,-92.80638
Dunn,ND,7/24/2013,637.26,1002451,NDRO-1024,47.18952,-102.6249
Malheur,OR,7/24/2013,890.3,1002452,ORR9-0914,43.77084,-118.049
Grant,OR,7/23/2013,1541.39,1002453,ORS9-0939,44.14125,-119.2912
Dunn,WI,7/24/2013,259.13,1002454,WISS-1164,44.81844,-91.87926
,IL,7/23/2013,,1002455,ILRF-0003,40.14087496,-87.74330483
,OH,7/24/2013,,1002456,OHRF-0002,41.18563335,-82.42516224
Saline,MO,7/23/2013,203.21,1002457,MOSS-1159,39.24991,-93.01204
Burnet,TX,7/24/2013,272.85,1002458,TXSS-1210,30.92768,-97.99342
Lincoln,NC,7/22/2013,270.43,1002459,NCS9-0921,35.4757,-81.40958
,NC,7/23/2013,,1002460,NCRF-0002,36.41318284,-80.26479615
Meagher,MT,7/24/2013,1479.58,1002461,MTLS-1130,46.59423,-111.0444
Greenwood,KS,7/23/2013,298.88,1002462,KSRS-1303,37.70662,-96.2133
Blount,AL,7/24/2013,238.17,1002463,ALSS-1065,34.07899,-86.50564
Fall River,SD,7/24/2013,905.65,1002464,SDRM-1011,43.39332,-103.3291
Del Norte,CA,7/24/2013,45.3,1002465,CAS9-0926,41.64846253,-124.0884502
Creek,OK,7/23/2013,227.29,1002466,OKS9-0934,35.71769,-96.37698
,IN,7/24/2013,,1002467,INRF-0001,39.01318876,-85.50090581
Kittitas,WA,7/24/2013,572.57,1002468,WARM-1001,47.18231,-120.9081
,IA,7/24/2013,,1002469,IARF-0004,42.66349762,-93.22859425
Tama,IA,7/25/2013,257.24,1002470,IAR9-0905,42.24730753,-92.32474086
Morris,NJ,7/25/2013,266.36,1002471,NJSS-1078,40.82636,-74.59106
Bureau,IL,7/24/2013,186.5,1002472,ILR9-0902,41.48585,-89.84848
Humboldt,CA,7/25/2013,41.19,1002474,CAS9-0920,40.72400294,-124.1173927
Lewis,NY,7/25/2013,318.7,1002475,NYSS-1249,43.76854,-75.50135
Kootenai,ID,7/25/2013,648.88,1002476,IDR9-0905,47.69644765,-116.9152781
,VT,7/25/2013,,1002477,VTRF-0001,43.94573225,-72.71111339
Jay,IN,7/25/2013,256.96,1002478,INS9-0923,40.54495,-84.92549
,IA,7/25/2013,,1002479,IARF-0002,41.77722746,-94.49883166
Franklin,OH,7/25/2013,268.18,1002480,OHS9-0921,40.01636,-83.25297
Baker,OR,7/25/2013,1947.52,1002481,ORS9-0937,44.85146,-118.1429
Elko,NV,7/23/2013,1688.18,1002482,NVS9-0921,40.7413,-115.5544
Elko,NV,7/25/2013,1581.47,1002483,NVR9-0920,41.88666,-114.6866
Elko,NV,7/24/2013,1603.38,1002484,NVS9-0926,41.8773,-115.6285
Wilkes,NC,7/24/2013,275.72,1002485,NCR9-0903,36.21492,-80.96029
Meagher,MT,7/25/2013,1443.41,1002486,MTRO-1070,46.60899,-111.0762
Bradley,AR,7/25/2013,30.2,1002487,ARR9-0905,33.55630442,-92.02261248
,AL,7/25/2013,,1002488,ALRF-0001,34.917856,-86.13294466
Lafourche,LA,7/25/2013,0.3,1002489,LAS9-0944,29.89733,-90.68334
Ascension,LA,7/24/2013,0.7,1002490,LAR9-0915,30.32848,-90.84382
Knox,MO,7/24/2013,226.6,1002491,MOLS-1080,40.05197,-92.15712
,IA,7/24/2013,,1002492,IARF-0005,40.83546401,-93.85600155
Washington,MN,7/24/2013,209.45,1002494,MNR9-0913,44.80659,-93.01163
Buffalo,MN,7/25/2013,198.2,1002495,MNR9-0901,44.13244,-91.72952
Williamson,TX,7/25/2013,281.21,1002496,TXS9-0933,30.6545,-97.92736
,IN,7/25/2013,,1002497,INRF-0002,39.36750046,-86.06756024
Roosevelt,MT,7/24/2013,608.6,1002498,MTRO-1061,48.22178,-105.1217
,OH,7/26/2013,,1002500,OHRF-0001,39.24004661,-82.76362538
Randolph,AL,7/26/2013,265.42,1002501,ALS9-0916,33.26014982,-85.50357137
Shoshone,ID,7/28/2013,656.38,1002502,IDRO-1033,47.3171,-116.3267
Bonner,ID,7/26/2013,629.72,1002503,IDRM-1011,48.16989,-116.7366
Bonner,ID,7/27/2013,666.54,1002504,IDRO-1025,48.26628,-116.8605
St. Clair,AL,7/28/2013,198.43,1002505,ALS9-0923,33.79214422,-86.13073021
Franklin,NY,7/28/2013,360.89,1002506,NYS9-0925,44.8645,-74.128
McKenzie,ND,7/25/2013,652.4,1002507,NDLS-1057,47.75863,-103.7374
Dunn,ND,7/26/2013,584.96,1002508,NDSS-1108,47.58122,-102.831
McKenzie,ND,7/25/2013,573.57,1002509,NDSS-1111,47.82305,-103.9888
Ogle,IL,7/25/2013,213.06,1002510,ILLS-1074,42.10498,-89.16953
,MO,7/25/2013,,1002511,MORF-0010,40.86299838,-91.66073893
Livingston,IL,7/26/2013,197.97,1002512,ILRO-1027,40.8218,-88.37701
Cheshire,NH,7/25/2013,69.84,1002513,NHR9-0902,43.06807,-72.4487
Franklin,NY,7/29/2013,482.4,1002514,NYS9-0937,44.6575,-74.00524
Johnson,IA,7/29/2013,200.85,1002515,IAS9-0931,41.60742374,-91.67084764
Latah,ID,7/29/2013,667.06,1002516,IDRO-1041,46.76034,-116.5153
Providence,RI,7/29/2013,68.51,1002517,RISS-1084,41.87916,-71.47102
Jefferson,AL,7/29/2013,81.07,1002518,ALRO-1021,33.58483,-87.09572
Hardin,IA,7/29/2013,332.97,1002519,IALS-1051,42.43728,-93.34563
Parke,IN,7/29/2013,181.15,1002520,INLS-1044,39.70522,-87.07882
Adams,CO,7/30/2013,1559.54,1002522,COSS-1097,39.88667,-104.9311
New Castle,DE,7/30/2013,48.23,1002523,DES9-0912,39.8061351,-75.46540517
Greene,IL,7/30/2013,129.87,1002525,ILSS-1128,39.19463,-90.5695
Franklin,NY,7/30/2013,334.88,1002526,NYLS-1119,44.87431,-74.14309
Berkeley,MD,7/30/2013,105.54,1002527,MDR9-0902,39.59856,-77.88461
,MO,7/29/2013,,1002529,MORO-1055,38.96452519,-91.62456214
,MO,7/30/2013,,1002530,MORF-0002,39.04243646,-92.39665487
Broadwater,MT,7/30/2013,1224.19,1002531,MTRM-1003,45.99139,-111.4634
,WI,7/30/2013,,1002532,WIRF-0012,42.88488247,-88.53879366
Okanogan,WA,7/30/2013,354.0,1002533,WAR9-0901,48.95608,-119.6933
Saunders,NE,7/30/2013,343.8,1002534,NER9-0905,41.15205,-96.54845
Cobb,GA,7/30/2013,272.93,1002535,GAS9-0914,34.06954655,-84.53634847
Dallas,IA,7/30/2013,278.62,1002536,IAS9-0920,41.85046039,-94.0261349
Trumbull,OH,7/30/2013,258.79,1002537,OHRO-1032,41.17577,-80.72513
Iron,MI,7/30/2013,496.53,1002538,MIS9-0928,46.29206,-88.94179
Craig,OK,7/30/2013,237.05,1002539,OKS9-0933,36.95135,-95.03539
Doniphan,KS,7/30/2013,251.93,1002540,KSR9-0901,39.87204,-95.02724
Turner,SD,7/30/2013,406.87,1002541,SDRO-1067,43.47996,-97.13014
Choctaw,OK,7/30/2013,120.15,1002542,OKR9-0912,33.91222,-95.54936
,WI,7/30/2013,,1002543,WIRF-0013,44.32900434,-87.63524085
Dallas,AL,7/30/2013,24.43,1002545,ALRM-1001,32.22869,-87.14828
Windsor,NH,7/30/2013,100.33,1002546,NHRM-1003,43.62451,-72.33184
Fresno,CA,7/30/2013,461.62,1002547,CAS9-0914,36.96370513,-119.2314147
Newton,TX,7/30/2013,19.66,1002548,TXR9-0916,30.88169,-93.57254
Wright,MN,7/30/2013,283.17,1002549,MNR9-0904,45.12479,-93.99624
Mercer,ND,7/31/2013,637.67,1002550,NDS9-0943,47.09669,-101.8017
Washington,NE,7/31/2013,353.72,1002551,NES9-0925,41.50319,-96.34988
Cascade,MT,7/31/2013,1011.45,1002552,MTR9-0912,47.45161,-111.3013
Mason,IL,7/31/2013,143.25,1002553,ILSS-1125,40.1534,-89.91671
Johnson,KS,7/31/2013,240.81,1002554,KSRS-1280,38.93963,-94.98134
Platte,WY,7/31/2013,1372.94,1002555,WYR9-0913,42.11494,-104.9852
Fremont,IA,7/31/2013,309.98,1002556,IAS9-0918,40.8737329,-95.59770401
Daviess,IN,7/31/2013,136.83,1002557,INS9-0920,38.71123,-87.17757
Calcasieu,LA,7/30/2013,4.96,1002558,LAS9-0950,30.17777,-93.05098
Vermilion,LA,7/31/2013,1.02,1002559,LASS-1051,29.94629,-92.46156
Gogebic,MI,7/31/2013,467.75,1002560,MILS-1057,46.33678,-89.67835
Hamilton,NY,7/31/2013,634.71,1002561,NYS9-0926,43.53158,-74.55173
Hamilton,OH,7/30/2013,146.77,1002562,OHR9-0904,39.13619,-84.34206
Turner,SD,7/31/2013,408.45,1002563,SDLS-1113,43.27772,-97.29453
Medina,OH,7/31/2013,278.87,1002564,OHS9-0918,41.15906,-81.81774
Douglas,NV,8/1/2013,1415.43,1002565,NVR9-0910,39.08216,-119.7573
Pike,AR,7/31/2013,94.72,1002566,ARS9-0944,34.06488091,-93.44225956
Cascade,MT,8/1/2013,1014.41,1002567,MTR9-0905,47.41435,-111.4986
Okanogan,WA,7/31/2013,1060.56,1002568,WASS-1133,48.88244,-119.0718
Natrona,WY,8/1/2013,1459.76,1002569,WYR9-0904,43.41402,-106.286
Litchfield,CT,7/31/2013,160.52,1002571,CTS9-0921,41.88046368,-73.49701751
Christian,IL,8/1/2013,180.4,1002572,ILS9-0920,39.54833,-89.4336
Marion,TX,8/1/2013,53.26,1002573,TXLS-1119,32.761,-94.30027
Johnson,KS,8/1/2013,238.88,1002574,KSRS-1312,39.0018,-94.80367
Trumbull,OH,8/1/2013,260.75,1002575,OHR9-0908,41.20854,-80.81059
Ontonagon,MI,8/1/2013,312.9,1002577,MISS-1135,46.71527,-89.39489
Antelope,NE,8/1/2013,510.44,1002578,NERO-1039,42.07903,-97.90916
Sherburne,MN,7/31/2013,260.14,1002579,MNR9-0905,45.29729,-93.57205
Meeker,MN,8/1/2013,308.64,1002580,MNR9-0911,45.1924,-94.28959
Montgomery,OH,8/1/2013,214.44,1002581,OHRM-1004,39.68934,-84.25809
Cayuga,NY,8/2/2013,324.95,1002582,NYSS-1245,42.72312,-76.46325
Rockingham,NH,8/1/2013,105.02,1002583,NHS9-0912,43.14515,-71.18604
Ontonagon,MI,8/2/2013,216.74,1002584,MIS9-0936,46.945,-89.1526
Natrona,WY,8/2/2013,1489.43,1002585,WYS9-0934,43.49248,-106.6606
,MO,8/1/2013,,1002586,MORF-0011,39.03420379,-92.57338209
Vermilion,LA,8/1/2013,0.6,1002587,LAS9-0946,29.90427,-92.116
Summit,OH,8/2/2013,252.16,1002588,OHLS-1070,41.12102,-81.51976
Choctaw,AL,8/2/2013,2.47,1002589,ALRM-1002,31.74166,-88.0956
,MO,7/31/2013,,1002591,MORF-0012,38.53755167,-92.31920281
,AL,8/4/2013,,1002592,ALRF-0004,31.05288349,-87.8369997
Marin,CA,7/31/2013,7.13,1002593,CAS9-0925,38.06906649,-122.5344472
Sonoma,CA,8/1/2013,249.65,1002594,CAS9-0928,38.8302773,-122.9060675
Shelby,IL,8/2/2013,160.57,1002595,ILS9-0921,39.21622,-89.02056
Ohio,KY,8/4/2013,111.86,1002596,KYRO-1031,37.47149,-87.11365
Valley,MT,7/30/2013,612.04,1002597,MTRM-1009,48.00585,-106.1089
Tompkins,NY,8/4/2013,330.74,1002598,NYLS-1122,42.54145,-76.30084
Barron,WI,7/31/2013,341.32,1002602,WILS-1089,45.44761,-91.87864
,WY,8/4/2013,,1002603,WYRF-0002,42.95994129,-104.1753415
Burnett,WI,8/1/2013,371.64,1002604,WIS9-0935,45.68021,-92.07058
Lyon,NV,8/2/2013,1722.26,1002606,NVRM-1007,38.43849,-119.0592
McCone,MT,7/31/2013,608.13,1002607,MTR9-0916,48.00521,-105.9092
Cayuga,NY,8/5/2013,120.87,1002608,NYS9-0924,43.00711,-76.68105
Grant,ND,8/5/2013,604.47,1002609,NDR9-0905,46.22149,-101.5025
Chatham,NC,8/4/2013,71.11,1002610,NCSS-1083,35.73299,-78.97088
Windsor,VT,8/5/2013,448.01,1002611,VTRS-1012,43.31279,-72.77013
Windham,VT,8/5/2013,597.01,1002612,VTS9-0911,42.94639,-72.87178
Washington,RI,8/5/2013,9.95,1002613,RILS-1022,41.42111,-71.79528
Mitchell,KS,8/5/2013,405.9,1002614,KSRS-1258,39.42137,-98.04703
Le Flore,OK,8/5/2013,152.43,1002615,OKRO-1087,34.85247,-94.61724
Carbon,UT,8/5/2013,2254.7,1002616,UTS9-0930,39.7883,-111.1081
Niobrara,WY,8/5/2013,1134.23,1002617,WYR9-0907,43.34957,-104.2957
Cayuga,NY,8/6/2013,170.36,1002618,NYS9-0923,42.93689,-76.61918
Warren,KY,8/5/2013,136.23,1002619,KYRO-1029,36.90474,-86.39364
St. Clair,MI,8/6/2013,185.0,1002620,MIS9-0933,42.94238,-82.48533
Limestone,AL,8/5/2013,171.78,1002621,ALR9-0901,34.95092177,-87.042028
Venango,PA,8/6/2013,313.01,1002622,PAR9-0902,41.47516,-79.51793
Beaverhead,MT,8/6/2013,1729.37,1002623,MTR9-0908,44.97626,-112.9966
Stark,ND,8/6/2013,669.56,1002624,NDRO-1020,46.75123,-102.3682
Troup,GA,8/6/2013,215.08,1002625,GAS9-0925,32.97839316,-84.87332035
Hillsborough,NH,8/6/2013,206.09,1002626,NHRO-1031,42.95269,-71.94206
Warren,IN,8/6/2013,155.84,1002629,INRO-1027,40.31368,-87.27048
,UT,8/6/2013,,1002630,UTRF-0003,38.40757272,-109.3972929
Caldwell,MO,8/6/2013,254.09,1002631,MOS9-0939,39.71145,-94.15728
Massac,IL,8/6/2013,95.5,1002632,ILLS-1067,37.16191,-88.71408
Hopkins,KY,8/6/2013,118.91,1002633,KYLS-1055,37.25659,-87.59639
Windham,VT,8/6/2013,532.21,1002634,VTRS-1008,42.96758,-72.80919
Pushmataha,OK,8/6/2013,178.28,1002635,OKR9-0907,34.63573,-95.12159
Gregg,TX,8/6/2013,84.3,1002636,TXS9-0929,32.46104,-94.70198
McCurtain,OK,8/6/2013,113.33,1002637,OKLS-1176,34.06699,-94.90529
Seneca,NY,8/7/2013,133.53,1002642,NYS9-0932,43.01567,-76.85464
,CO,8/6/2013,,1002643,CORF-0001,40.13082822,-105.7673668
Lincoln,KS,8/6/2013,419.72,1002644,KSRS-1306,39.03621,-98.23066
St. Clair,MI,8/7/2013,176.35,1002645,MISS-1132,42.63643,-82.58948
Campbell,WY,8/6/2013,1400.74,1002646,WYS9-0930,43.94402,-105.4367
Faribault,MN,8/5/2013,317.29,1002647,MNS9-0927,43.76482,-94.04071
,MN,8/5/2013,,1002648,MNLS-1105,44.49206239,-95.87258168
Merrimack,NH,8/7/2013,67.44,1002649,NHR9-0904,43.19317,-71.52351
New Haven,CT,8/7/2013,106.52,1002651,CTS9-0916,41.38091844,-72.78024571
,VT,8/7/2013,,1002652,VTRF-0003,43.32959444,-72.79840344
Emery,UT,8/7/2013,1644.05,1002653,UTS9-0927,39.1334,-110.9467
Beaverhead,MT,8/7/2013,2064.11,1002654,MTLS-1131,44.89928,-112.2601
Jackson,IL,8/7/2013,117.42,1002655,ILLS-1069,37.95013,-89.42698
Minidoka,ID,8/7/2013,1261.6,1002656,IDR9-0901,42.5756575,-113.6292099
,NE,8/6/2013,,1002657,NERF-0005,42.69680895,-97.78765396
Knox,NE,8/7/2013,429.31,1002658,NES9-0926,42.58964,-97.87222
Angelina,TX,8/7/2013,56.07,1002661,TXRO-1080,31.49309,-94.83198
Ripley,IN,8/8/2013,273.2,1002662,INS9-0918,39.18727,-85.3494
Cayuga,NY,8/8/2013,218.56,1002663,NYS9-0934,42.74127,-76.4744
Holt,MO,8/7/2013,256.48,1002664,MOLS-1088,40.0218,-95.2643
,OH,8/7/2013,,1002665,OHRF-0003,39.72160561,-83.88091001
Hunterdon,NJ,8/8/2013,155.45,1002666,NJSS-1077,40.70016,-74.78779
Campbell,WY,8/8/2013,1070.66,1002667,WYRO-1032,44.80369,-105.3685
Bannock,ID,8/8/2013,1340.13,1002668,IDRO-1039,42.90106,-112.505
Blue Earth,MN,8/6/2013,296.18,1002669,MNR9-0914,43.90668,-94.0603
Mower,MN,8/7/2013,346.97,1002670,MNRO-1055,43.52059,-93.00273
Elko,NV,8/6/2013,1833.15,1002671,NVLS-1067,41.88354,-115.4309
Moody,SD,8/6/2013,472.7,1002672,SDS9-0942,43.90549,-96.48497
Lawrence,IL,8/8/2013,123.53,1002673,ILSS-1130,38.7142,-87.59376
Green,KY,8/8/2013,158.8,1002674,KYR9-0905,37.29116,-85.59289
Buchanan,MO,8/8/2013,249.1,1002675,MOS9-0937,39.69717,-94.88073
Madison,MT,8/8/2013,2132.3,1002676,MTS9-0928,45.53162,-112.1075
Warren,PA,8/8/2013,356.17,1002677,PARM-1004,41.8337,-79.17312
Warren,PA,8/7/2013,334.89,1002678,PARM-1008,41.68358,-79.3751
,MN,8/7/2013,,1002679,MNRF-0008,44.90591253,-96.31696069
Campbell,WY,8/9/2013,1338.06,1002684,WYRO-1036,44.07423,-105.2546
Muhlenberg,KY,8/9/2013,131.93,1002685,KYS9-0925,37.25037,-87.24123
,KY,8/8/2013,,1002686,KYRF-0002,37.58632177,-86.61973903
Bingham,ID,8/9/2013,1354.66,1002687,IDRO-1031,43.14662,-112.4308
Carbon,UT,8/8/2013,1677.39,1002688,UTLS-1058,39.78573,-110.1786
Anderson,TX,8/8/2013,86.79,1002689,TXR9-0914,31.93453,-95.43336
Madison,NY,8/11/2013,405.13,1002690,NYLS-1121,42.79641,-75.86431
Greene,NC,8/9/2013,9.21,1002691,NCR9-0905,35.458,-77.675
Wayne,NC,8/8/2013,23.98,1002692,NCLS-1038,35.43982,-78.02565
Clay,KY,8/11/2013,334.65,1002693,KYS9-0920,37.20463,-83.52786
Crook,WY,8/11/2013,1167.4,1002694,WYS9-0935,44.74978,-104.9555
Bonneville,ID,8/10/2013,1529.71,1002695,IDRM-1023,43.61997,-111.6627
Fremont,ID,8/11/2013,1925.78,1002696,IDRO-1029,44.40736,-111.584
Pawnee,NE,8/12/2013,364.33,1002697,NELS-1073,40.19518,-96.22861
,NC,8/11/2013,,1002698,NCRF-0004,36.25938461,-77.88205316
Tillamook,OR,8/12/2013,129.54,1002699,ORLS-1093,45.56444,-123.5731
Onondaga,NY,8/12/2013,112.08,1002700,NYR9-0910,43.13767,-76.29551
,KY,8/12/2013,,1002701,KYRF-0001,37.0866943,-83.6024257
Carter,OK,8/12/2013,229.88,1002702,OKS9-0937,34.27513,-97.19231
Little River,AR,8/12/2013,71.88,1002703,ARR9-0908,33.61703373,-93.86000774
Atoka,OK,8/12/2013,136.66,1002704,OKRO-1086,34.19471,-95.84755
Lincoln,ID,8/12/2013,1280.5,1002705,IDRO-1036,43.01416,-114.2107
Sussex,DE,8/12/2013,0.0,1002706,DER9-0903,38.61816614,-75.63092164
Plumas,CA,8/12/2013,1347.91,1002707,CAS9-0918,39.90521375,-121.0465597
McCreary,KY,8/13/2013,284.88,1002709,KYSS-1077,36.68126,-84.70198
Madison,NY,8/13/2013,350.86,1002710,NYS9-0931,42.90824,-75.4783
Northampton,NC,8/12/2013,18.0,1002711,NCR9-0901,36.48171,-77.65994
Bureau,IL,8/13/2013,186.5,1002712,ILR9-0902,41.48585,-89.84848
Pike,AR,8/13/2013,67.73,1002713,ARLS-1046,33.99517,-93.38717
Matagorda,TX,8/13/2013,2.95,1002714,TXS9-0934,28.8784,-96.28717
Bryan,OK,8/13/2013,131.4,1002715,OKRM-1004,33.87907,-95.91292
Coal,OK,8/13/2013,205.66,1002716,OKLS-1182,34.75613,-96.38302
Lac qui Parle,MN,8/13/2013,280.85,1002717,MNR9-0918,44.94299,-95.77757
Nicollet,MN,8/12/2013,240.9,1002718,MNRM-1011,44.29199,-94.42179
Lake,MI,8/13/2013,252.71,1002719,MILS-1058,43.91048,-85.82958
Gregory,SD,8/13/2013,451.33,1002720,SDS9-0939,43.07013,-98.8004
Orange,VT,8/14/2013,281.29,1002721,VTRS-1002,43.91462,-72.45775
Sussex,DE,8/13/2013,0.0,1002722,DERO-1005,38.64932,-75.58961
Marion,OR,8/14/2013,265.12,1002724,ORLS-1097,44.79838,-122.4811
Onondaga,NY,8/14/2013,112.08,1002725,NYRO-1058,43.16468,-76.25831
Chippewa,WI,8/12/2013,291.58,1002726,WIS9-0927,44.94776,-91.55695
Chippewa,WI,8/13/2013,296.15,1002727,WILS-1090,44.94887,-91.12384
Knott,KY,8/14/2013,329.26,1002728,KYS9-0923,37.29618,-83.06281
Lake,MI,8/14/2013,276.69,1002729,MISS-1134,44.01722,-85.75155
Pike,AR,8/14/2013,94.72,1002730,ARS9-0944,34.06488091,-93.44225956
Cherry,NE,8/14/2013,788.9,1002732,NES9-0921,42.8028,-100.5568
,VA,8/14/2013,,1002733,VARF-0005,37.83979205,-80.12245277
Big Horn,MT,8/14/2013,930.38,1002739,MTRO-1062,45.56153,-107.4351
Victoria,TX,8/14/2013,24.43,1002740,TXRM-1010,28.89089,-97.13556
McLeod,MN,8/14/2013,314.38,1002741,MNLS-1094,44.66968,-94.45606
Oneida,NY,8/15/2013,159.16,1002742,NYSS-1238,43.12556,-75.58383
Caledonia,VT,8/15/2013,375.14,1002743,VTRS-1003,44.21852,-72.26004
Kittitas,WA,8/14/2013,606.86,1002744,WASS-1145,47.09155,-120.5538
,IL,8/15/2013,,1002745,ILRF-0002,39.26607965,-87.6999488
Pike,KY,8/15/2013,222.6,1002746,KYLS-1054,37.5641,-82.45177
Butte,CA,8/13/2013,1296.35,1002747,CAS9-0927,40.07704424,-121.5625018
Sierra,CA,8/14/2013,1029.25,1002748,CAS9-0916,39.4667372,-120.9644497
Carver,MN,8/15/2013,286.59,1002749,MNR9-0910,44.85127,-93.98283
Clackamas,OR,8/15/2013,865.62,1002750,ORS9-0932,45.21177,-121.8471
Grafton,NH,8/15/2013,169.0,1002751,NHSS-1068,43.68735,-71.61899
Laurel,KY,8/16/2013,330.25,1002752,KYLS-1053,37.04282,-84.04663
Livingston,NY,8/18/2013,168.32,1002753,NYRO-1057,42.76741,-77.83879
Hickman,KY,8/18/2013,109.65,1002754,KYSS-1078,36.76687,-89.08165
Kent,DE,8/19/2013,7.01,1002755,DESS-1090,39.19811,-75.57552
Orleans,NY,8/19/2013,145.43,1002756,NYSS-1237,43.24839,-78.23876
Lackawanna,PA,8/19/2013,165.23,1002757,PARM-1006,41.38492,-75.80537
Boone,KY,8/19/2013,183.81,1002758,KYS9-0926,38.82073,-84.70514
Washington,OH,8/19/2013,178.41,1002759,OHR9-0905,39.46603,-81.48059
Sweet Grass,MT,8/19/2013,1453.37,1002760,MTS9-0923,45.83769,-110.0458
Marquette,MI,8/19/2013,422.06,1002761,MILS-1060,46.71457,-87.84176
Lincoln,OK,8/19/2013,266.11,1002762,OKS9-0932,35.74931,-97.13433
Graham,KS,8/19/2013,676.14,1002763,KSS9-0938,39.55417,-99.74415
Fremont,IA,8/19/2013,309.98,1002764,IAS9-0918,40.8737329,-95.59770401
Gregory,SD,8/19/2013,534.49,1002765,SDS9-0937,43.24112,-99.18716
Houghton,MI,8/20/2013,255.25,1002766,MIS9-0937,46.78712,-88.7409
Coshocton,OH,8/20/2013,223.27,1002767,OHR9-0902,40.26612,-81.87411
Monroe,NY,8/20/2013,172.99,1002768,NYLS-1118,42.97868,-77.5953
,MO,8/20/2013,,1002769,MORF-0007,36.79536531,-91.33399504
Park,MT,8/20/2013,1579.53,1002770,MTS9-0944,45.9935,-110.7353
Le Sueur,MN,8/19/2013,306.27,1002771,MNLS-1097,44.24285,-93.62669
Faribault,MN,8/20/2013,317.29,1002772,MNS9-0927,43.76482,-94.04071
Jewell,KS,8/20/2013,487.94,1002773,KSRS-1338,39.89553,-98.19393
Bryan,OK,8/20/2013,140.84,1002774,OKRM-1001,33.78372,-96.17145
Lane,OR,8/20/2013,481.83,1002775,ORS9-0933,43.61499,-122.7665
Spink,SD,8/20/2013,379.88,1002776,SDSS-1186,44.68489,-98.29677
Milam,TX,8/20/2013,73.99,1002777,TXRO-1074,30.83924,-96.72312
Adams,WI,8/19/2013,273.02,1002778,WILS-1087,43.92827,-89.90295
Juneau,WI,8/20/2013,291.36,1002779,WIS9-0924,44.219,-90.21632
Cheshire,NH,8/20/2013,137.02,1002781,NHSS-1067,42.75674,-72.46335
,MO,8/21/2013,,1002782,MORF-0003,37.14882858,-91.44887715
Kent,DE,8/21/2013,13.41,1002783,DES9-0908,39.20764401,-75.74852691
Livingston,NY,8/21/2013,162.94,1002784,NYR9-0915,42.85984,-77.84331
Sublette,WY,8/21/2013,2506.74,1002785,WYS9-0932,42.54689,-109.1164
Fremont,WY,8/20/2013,2008.56,1002786,WYRO-1038,42.50246,-108.2566
Skamania,WA,8/20/2013,1076.87,1002787,WAS9-0915,46.13171,-121.5873
Tioga,PA,8/21/2013,310.04,1002788,PAR9-0903,41.92258,-77.12923
,OK,8/20/2013,,1002789,OKRF-0001,34.24831438,-96.72079064
Marquette,MI,8/21/2013,285.19,1002790,MIS9-0932,46.05777,-87.24736
Tuscarawas,OH,8/21/2013,265.72,1002791,OHR9-0903,40.58128,-81.39514
Custer,ID,8/21/2013,1571.56,1002792,IDRM-1013,44.38713,-114.2643
Douglas,OR,8/21/2013,696.57,1002793,ORSS-1168,42.85641,-123.1434
Ottawa,KS,8/21/2013,401.69,1002794,KSS9-0936,39.28797,-97.41126
Meagher,MT,8/21/2013,1754.67,1002795,MTS9-0946,46.32795,-110.6049
Walworth,WI,8/21/2013,235.32,1002796,WILS-1088,42.72299,-88.31107
Leon,TX,8/21/2013,87.77,1002801,TXLS-1123,31.12623,-96.24693
Spink,SD,8/21/2013,391.88,1002829,SDR9-0904,45.00144,-98.63766
New Haven,CT,8/21/2013,106.52,1002836,CTS9-0916,41.38091844,-72.78024571
Izard,AR,8/22/2013,158.88,1002837,ARS9-0949,36.11488648,-91.96699076
White,AR,8/21/2013,156.36,1002838,ARS9-0950,35.51270345,-91.61686914
,MO,8/22/2013,,1002840,MORF-0008,36.86548842,-92.45706399
Sweet Grass,MT,8/22/2013,1683.59,1002841,MTSS-1292,46.07532,-110.0509
Lycoming,PA,8/22/2013,219.5,1002842,PARO-1050,41.45998,-77.5098
Custer,ID,8/22/2013,1555.72,1002843,IDR9-0913,44.42427139,-114.2349763
Livingston,NY,8/22/2013,258.89,1002844,NYS9-0927,42.67849,-77.70648
Lane,OR,8/19/2013,450.51,1002845,ORSS-1173,43.841,-122.8208
Delta,MI,8/22/2013,208.12,1002846,MISS-1137,45.84948,-87.11052
Green,KY,8/22/2013,158.8,1002847,KYR9-0905,37.29116,-85.59289
Mono,CA,8/22/2013,2206.84,1002854,CAS9-0919,38.27112925,-119.3316508
Mono,CA,8/21/2013,2162.88,1002855,CAS9-0924,37.56388064,-118.7547913
Iowa,WI,8/22/2013,337.78,1002856,WISS-1166,42.95101,-90.349
Jackson,MN,8/21/2013,402.36,1002857,MNR9-0903,43.7194,-95.04622
Wyoming,NY,8/23/2013,505.52,1002858,NYSS-1253,42.60283,-78.19505
Grays Harbor,WA,8/22/2013,23.18,1002859,WAS9-0925,47.06727,-123.8236
Muhlenberg,KY,8/23/2013,131.93,1002860,KYS9-0925,37.25037,-87.24123
Glacier,MT,8/21/2013,1872.55,1002861,MTSS-1265,48.94596,-114.0254
San Juan,UT,8/20/2013,1357.11,1002862,UTR9-0901,37.22372,-109.2087
San Juan,UT,8/21/2013,1304.88,1002863,UTRM-1009,37.25537,-109.6218
Washington,NC,8/23/2013,4.35,1002864,NCSS-1081,35.79718,-76.63771
Barren,KY,8/25/2013,217.82,1002865,KYS9-0921,36.93503,-85.77766
Cayuga,NY,8/25/2013,170.36,1002866,NYS9-0923,42.93689,-76.61918
Teton,WY,8/25/2013,2385.94,1002867,WYSS-1197,44.35518,-110.514
Cayuga,NY,8/26/2013,120.87,1002868,NYS9-0924,43.00711,-76.68105
Lincoln,WY,8/23/2013,2124.81,1002869,WYS9-0927,42.81299,-110.689
Lincoln,WY,8/22/2013,2005.39,1002870,WYLS-1091,42.93435,-110.7209
Clearfield,PA,8/26/2013,468.18,1002871,PAS9-0917,40.92973,-78.26005
Washington,OR,8/26/2013,37.73,1002872,ORR9-0912,45.48478,-122.9599
Beaver,PA,8/26/2013,221.62,1002873,PARO-1052,40.78034,-80.32113
Riley,KS,8/26/2013,350.06,1002874,KSRS-1301,39.13624,-96.78261
Carlisle,KY,8/26/2013,94.69,1002875,KYRO-1032,36.92339,-89.00926
Jackson,WI,8/26/2013,271.33,1002876,WIS9-0926,44.25218,-90.76171
Boise,ID,8/26/2013,801.78,1002877,IDRO-1050,43.93061,-116.1794
Sonoma,CA,8/26/2013,88.89,1002878,CAR9-0903,38.81627171,-123.0111924
Lawrence,PA,8/27/2013,229.84,1002879,PAR9-0905,40.93107,-80.37396
Pittsylvania,VA,8/27/2013,161.49,1002880,VAR9-0911,37.12219,-79.35359
Sublette,WY,8/27/2013,2128.39,1002881,WYLS-1087,43.1383,-110.3885
Teton,WY,8/26/2013,2323.78,1002882,WYLS-1094,43.55855,-110.2491
Poinsett,AR,8/27/2013,64.58,1002883,ARR9-0909,35.5326437,-90.44201227
Deer Lodge,MT,8/27/2013,1602.48,1002884,MTS9-0931,46.1589,-112.9051
Zavala,TX,8/27/2013,169.98,1002885,TXR9-0917,28.72577,-99.81584
Lawrence,PA,8/27/2013,327.54,1002886,PAR9-0908,41.02419,-80.16323
Tehama,CA,8/27/2013,247.13,1002887,CAS9-0917,40.21900407,-121.9974197
Fall River,SD,8/27/2013,1074.98,1002888,SDR9-0907,43.42244,-103.9918
Lemhi,ID,8/23/2013,1029.62,1002903,IDR9-0904,45.36948405,-114.2899056
Custer,ID,8/24/2013,1418.68,1002904,IDRM-1009,44.68544,-114.0657
Lemhi,ID,8/23/2013,959.43,1002905,IDRM-1021,45.3167,-114.4641
Malheur,ID,8/27/2013,664.32,1002906,IDRM-1024,43.86404,-116.9933
Lemhi,ID,8/24/2013,1195.91,1002907,IDRM-1002,45.18622,-113.8928
Venango,PA,8/28/2013,313.01,1002908,PAR9-0902,41.47516,-79.51793
Cheshire,NH,8/27/2013,69.84,1002909,NHR9-0902,43.06807,-72.4487
Clay,KS,8/27/2013,383.81,1002921,KSRS-1317,39.55767,-97.21205
Ottawa,KS,8/27/2013,365.8,1002922,KSRS-1313,39.01663,-97.48087
Cobb,GA,8/28/2013,272.93,1002923,GAS9-0914,34.06954655,-84.53634847
Troup,GA,8/27/2013,215.08,1002924,GAS9-0925,32.97839316,-84.87332035
Laurel,KY,8/28/2013,259.06,1002925,KYR9-0907,37.23007,-84.24396
Wabasha,MN,8/27/2013,233.72,1002926,MNRO-1051,44.23643,-92.3252
Allegan,MI,8/28/2013,218.94,1002927,MIS9-0935,42.61669,-85.7282
Hartford,CT,8/28/2013,114.3,1002928,CTSS-1079,41.69945,-72.52501
Sharp,AR,8/28/2013,126.78,1002929,ARLS-1048,36.1023,-91.6197
Bexar,TX,8/28/2013,135.6,1002930,TXR9-0910,29.23893,-98.45168
Amherst,VA,8/28/2013,192.38,1002931,VAR9-0906,37.59328,-79.38321
La Crosse,WI,8/28/2013,216.01,1002932,WIS9-0933,43.967,-91.24195
Jefferson,MT,8/28/2013,1722.31,1002933,MTLS-1133,45.80915,-112.3638
Lincoln,WY,8/28/2013,1794.78,1002934,WYSS-1201,42.97962,-111.0067
Perkins,SD,8/28/2013,767.4,1002959,SDRM-1001,45.15509,-102.7526
Sussex,DE,8/28/2013,0.0,1002960,DERO-1002,38.57155,-75.67426
Cleburne,AR,8/20/2013,80.39,1002961,ARRO-1022,35.51034,-91.92887
Deer Lodge,MT,8/29/2013,1960.05,1002962,MTSS-1262,45.99369,-113.0349
Clallam,WA,8/27/2013,1006.62,1002963,WASS-1136,47.99068,-123.5023
Allegan,MI,8/27/2013,241.65,1002964,MIS9-0925,42.42834,-85.58468
Marshall,KY,8/27/2013,107.48,1002965,KYLS-1056,36.8776,-88.41156
Live Oak,TX,8/29/2013,29.97,1002966,TXR9-0909,28.30211,-98.05815
Mercer,PA,8/29/2013,258.75,1002967,PAR9-0911,41.24333,-80.50937
Clackamas,OR,8/29/2013,198.03,1002968,ORR9-0902,45.39535,-122.1494
Fillmore,MN,8/28/2013,272.61,1002969,MNRM-1007,43.81142,-92.09543
Izard,AR,8/29/2013,200.59,1002971,ARS9-0945,36.23849513,-91.90776753
Hempstead,AR,8/15/2013,73.29,1002972,ARRM-1003,33.63585,-93.90638
Fillmore,MN,8/29/2013,314.79,1002973,MNLS-1091,43.56311,-91.73165
Steuben,NY,9/2/2013,546.24,1002974,NYSS-1251,42.03475,-77.55209
Steuben,NY,9/3/2013,280.5,1003000,NYR9-0902,42.14603,-77.05409
Cattaraugus,NY,9/3/2013,483.52,1003001,NYSS-1252,42.45469,-78.48087
Pulaski,VA,9/3/2013,564.17,1003002,VARS11-131,36.9366,-80.7462
Cattaraugus,NY,9/4/2013,428.65,1003003,NYR9-0909,42.06591,-78.46922
Washington,OR,9/4/2013,37.28,1003004,ORRO-1060,45.46216,-122.9433
Bradford,PA,9/4/2013,327.42,1003005,PALS-1087,41.65584,-76.7847
Barber,KS,9/3/2013,559.45,1003006,KSRS-1343,37.44358,-98.77875
Sedgwick,KS,9/4/2013,400.0,1003007,KSRS-1278,37.84788,-97.14895
Litchfield,CT,9/4/2013,107.3,1003008,CTSS-1080,41.61153,-73.44651
Meagher,MT,9/4/2013,1447.93,1003009,MTSS-1260,46.84538,-111.1383
Macon,GA,9/3/2013,80.97,1003010,GALS-1055,32.2973,-84.04997
Giles,VA,9/4/2013,489.09,1003011,VAR9-0903,37.31028,-80.68118
Broome,NY,9/4/2013,285.08,1003012,NYRO-1050,42.31674,-75.94378
Jones,TX,9/4/2013,484.41,1003013,TXLS-1118,32.63661,-99.66784
,LA,9/4/2013,,1003014,LARF-0002,31.15249472,-92.80901333
Juneau,WI,9/4/2013,291.36,1003015,WIS9-0924,44.219,-90.21632
,WA,9/4/2013,,1003016,WARF-0105,46.99413073,-121.9245422
Coshocton,OH,9/4/2013,223.27,1003017,OHR9-0902,40.26612,-81.87411
Yakima,WA,9/4/2013,836.66,1003018,WAS9-0923,46.79931,-121.0911
Grafton,NH,9/4/2013,166.25,1003019,NHLS-1044,43.83947,-71.89917
Susquehanna,PA,9/5/2013,235.36,1003020,PALS-1086,41.64813,-75.78612
Cattaraugus,NY,9/5/2013,430.05,1003021,NYR9-0908,42.08065,-78.42363
Chattahoochee,GA,9/4/2013,73.11,1003022,GALS-1051,32.40337,-84.84836
Wythe,VA,9/5/2013,624.05,1003023,VARS11-113,36.8622,-80.9862
Bannock,ID,9/5/2013,2015.25,1003024,IDS9-0922,42.46121103,-111.9125695
Palo Pinto,TX,9/5/2013,241.18,1003025,TXRM-1004,32.78628,-98.19314
,WA,9/5/2013,,1003026,WARF-0104,47.15195426,-121.7034924
Lauderdale,AR,9/5/2013,65.74,1003027,ARR9-0901,35.62598092,-89.87932864
Clark,WI,9/5/2013,316.98,1003028,WIS9-0934,44.8774,-90.84792
Shelby,AR,9/4/2013,57.05,1003029,ARRM-1005,35.12047,-90.09057
Lauderdale,AR,9/5/2013,64.17,1003030,ARRM-1001,35.60184,-89.90212
Bonneville,ID,9/6/2013,1745.03,1003031,IDLS-1063,43.27598,-111.2419
Chautauqua,NY,9/6/2013,398.55,1003032,NYS9-0930,42.11547,-79.26637
Chenango,NY,9/6/2013,390.6,1003033,NYS9-0935,42.4942,-75.57194
Chenango,NY,9/5/2013,291.32,1003034,NYR9-0901,42.42297,-75.63217
Effingham,IL,9/6/2013,140.69,1003035,ILRO-1025,38.92612,-88.556
Tioga,NY,9/8/2013,237.54,1003036,NYRM-1005,42.08366,-76.29192
Montgomery,NY,9/8/2013,83.94,1003037,NYRO-1055,42.94959,-74.3836
Bannock,ID,9/7/2013,1404.85,1003038,IDRO-1047,42.74116,-112.2166
Gooding,ID,9/8/2013,907.5,1003039,IDR9-0911,42.66148588,-114.6627054
Schenectady,NY,9/9/2013,63.83,1003040,NYR9-0903,42.82852,-73.98933
Graham,KS,9/9/2013,676.14,1003041,KSS9-0938,39.55417,-99.74415
Tioga,NY,9/9/2013,233.12,1003042,NYR9-0911,42.02896,-76.39831
Emery,UT,9/9/2013,1644.05,1003043,UTS9-0927,39.1334,-110.9467
Dinwiddie,VA,9/9/2013,40.39,1003044,VARS11-112,37.1379,-77.5003
Robertson,KY,9/9/2013,172.04,1003045,KYRM-1007,38.49513,-84.16162
Morris,NJ,9/10/2013,252.16,1003046,NJSS-1085,40.81218,-74.60707
Grand,UT,9/10/2013,1207.65,1003047,UTRM-1002,38.61272,-109.5584
Ferry,WA,9/10/2013,629.49,1003048,WALS-1069,48.3454,-118.2804
,NC,9/9/2013,,1003049,NCRF-0001,35.64379988,-81.74478177
Hamilton,TX,9/10/2013,280.41,1003050,TXRO-1081,31.71477,-98.01866
Halifax,VA,9/10/2013,99.58,1003051,VAR9-0904,36.76203,-78.87142
Richland,WI,9/10/2013,249.31,1003052,WIS9-0925,43.53297,-90.62979
Eagle,CO,9/10/2013,1871.6,1003053,COR9-0908,39.65512778,-107.0671515
Moody,SD,9/10/2013,472.7,1003054,SDS9-0942,43.90549,-96.48497
Gove,KS,9/10/2013,710.23,1003055,KSR9-0907,38.76631,-100.2741
Cattaraugus,NY,9/10/2013,464.44,1003056,NYS9-0933,42.23492,-78.77276
Herkimer,NY,9/10/2013,161.49,1003057,NYLS-1120,42.97827,-74.82221
,WA,9/10/2013,,1003058,WARF-0103,46.89945717,-122.0299574
,PA,9/10/2013,,1003059,PARF-0002,41.46559835,-80.00237669
Providence,RI,9/11/2013,95.78,1003060,RILS-1026,41.79451,-71.67064
Montgomery,NY,9/11/2013,77.24,1003061,NYR9-0912,42.93558,-74.19445
Chautauqua,NY,9/11/2013,174.16,1003062,NYRO-1053,42.56912,-79.13579
Sanders,MT,9/10/2013,758.23,1003063,MTRM-1008,47.34634,-114.7239
Grafton,NH,9/11/2013,141.93,1003064,NHLS-1045,43.69267,-72.27664
Brown,KS,9/11/2013,277.72,1003065,KSRS-1348,39.99012,-95.62911
Lafayette,MO,9/11/2013,212.95,1003066,MOS9-0930,39.02827,-93.68119
Buchanan,MO,9/10/2013,249.1,1003067,MOS9-0937,39.69717,-94.88073
Jackson,NC,9/10/2013,1336.84,1003068,NCSS-1086,35.35514,-83.02467
Forest,PA,9/11/2013,389.7,1003069,PARO-1053,41.62465,-79.0336
Clay,SD,9/11/2013,353.54,1003070,SDR9-0902,42.99859,-97.00442
McLennan,TX,9/11/2013,109.15,1003071,TXR9-0918,31.55041,-97.09174
Grand,UT,9/11/2013,1243.23,1003072,UTRM-1001,38.7615,-109.3237
Rowan,KY,9/11/2013,201.17,1003073,KYRM-1003,38.12341,-83.55383
Sanders,MT,9/11/2013,738.37,1003075,MTRM-1004,47.5398,-115.0797
Otsego,NY,9/12/2013,348.19,1003076,NYRM-1003,42.54433,-74.95158
Barry,MI,9/12/2013,230.6,1003077,MILS-1056,42.76602,-85.29818
,KY,9/11/2013,,1003078,KYLS-1062,37.44252969,-86.56174104
Cameron,PA,9/12/2013,384.52,1003079,PASS-1163,41.47983,-78.06974
Ferry,WA,9/11/2013,433.57,1003080,WARO-1040,48.0872,-118.6916
Chautauqua,NY,9/12/2013,204.81,1003081,NYSS-1236,42.3999,-79.44188
,WA,9/12/2013,,1003082,WARF-0106,48.28994446,-121.5559061
Halifax,VA,9/11/2013,113.15,1003083,VAR9-0902,36.87645,-79.06775
Grant,WI,9/12/2013,240.78,1003084,WIS9-0930,42.97611,-90.99135
Mineral,MT,9/12/2013,837.89,1003086,MTR9-0901,47.06636,-114.7699
Falls,TX,9/12/2013,100.61,1003087,TXRM-1002,31.33678,-96.97263
Grand,UT,9/12/2013,1312.9,1003088,UTR9-0905,39.08975,-109.1016
Portage,OH,9/13/2013,281.62,1003089,OHLS-1073,41.15671,-81.04802
,WA,9/13/2013,,1003090,WARF-0102,46.96701592,-121.0919538
Albany,NY,9/13/2013,348.01,1003091,NYLS-1117,42.61359,-74.08873
Broome,NY,9/15/2013,259.99,1003092,NYR9-0904,42.16144,-75.85678
,WA,9/15/2013,,1003093,WARF-0101,45.92848238,-121.1278811
Chariton,MO,9/12/2013,189.16,1003094,MORO-1045,39.34233,-92.81175
Chenango,NY,9/16/2013,278.0,1003096,NYR9-0913,42.34775,-75.69644
Pittsylvania,VA,9/16/2013,161.49,1003097,VAR9-0911,37.12219,-79.35359
,OR,9/16/2013,,1003098,ORRF-0106,44.16920392,-123.1350581
Sanilac,MI,9/16/2013,246.32,1003099,MIS9-0938,43.61935,-82.78241
Kay,OK,9/16/2013,314.57,1003100,OKR9-0902,36.958,-97.42192
Arkansas,AR,9/16/2013,42.82,1003101,ARR9-0902,34.35270394,-91.10541947
Montgomery,KS,9/16/2013,230.44,1003102,KSRS-1255,37.2097,-95.54539
Bayfield,WI,9/16/2013,210.69,1003103,WIS9-0936,46.78863,-91.26534
Boundary,ID,9/16/2013,533.72,1003104,IDRO-1049,48.99286,-116.5348
Steuben,NY,9/17/2013,280.5,1003105,NYR9-0902,42.14603,-77.05409
Morgan,GA,9/17/2013,171.97,1003106,GASS-1079,33.54325,-83.50925
,TX,9/17/2013,,1003107,TXRF-0009,31.59061722,-98.12713322
Amherst,VA,9/17/2013,192.38,1003108,VAR9-0906,37.59328,-79.38321
Cherokee,OK,9/17/2013,225.53,1003109,OKSS-1405,35.98696,-94.91589
Gasconade,MO,9/17/2013,209.88,1003110,MORO-1044,38.28136,-91.3765
Limestone,AL,9/17/2013,171.78,1003111,ALR9-0901,34.95092177,-87.042028
Plumas,CA,9/16/2013,680.64,1003112,CAR9-0909,40.00190523,-121.2682255
Neosho,KS,9/17/2013,285.16,1003113,KSRS-1324,37.46056,-95.35744
Deuel,SD,9/17/2013,406.5,1003114,SDSS-1194,44.89092,-96.49758
Providence,RI,9/18/2013,78.2,1003116,RISS-1080,41.92004,-71.53041
Broome,NY,9/18/2013,259.83,1003117,NYRM-1001,42.01278,-75.77946
Polk,GA,9/18/2013,290.25,1003118,GASS-1081,33.92562,-85.34712
,OR,9/18/2013,,1003119,ORRF-0104,43.74315119,-122.5027068
Fauquier,VA,9/18/2013,119.91,1003120,VARS11-111,38.9294,-77.8737
Skamania,WA,9/17/2013,1076.87,1003121,WAS9-0915,46.13171,-121.5873
McCulloch,TX,9/18/2013,499.39,1003122,TXS9-0931,31.13182,-99.32021
Chicot,AR,9/17/2013,31.3,1003123,ARRM-1002,33.32053,-91.16849
Costilla,CO,9/18/2013,2275.82,1003124,COR9-0905,37.1760795,-105.7310464
,AL,9/18/2013,,1003125,ALRF-0002,33.22326014,-86.88807657
Lee,AR,9/18/2013,47.83,1003126,ARR9-0903,34.69500093,-90.64588479
Jefferson,MO,9/18/2013,142.41,1003127,MOR9-0911,38.30297,-90.62706
Burnett,WI,9/18/2013,302.93,1003128,WILS-1093,45.84817,-92.05125
Park,MT,9/18/2013,1551.02,1003129,MTRM-1007,45.12655,-110.8041
Clearwater,ID,9/18/2013,674.01,1003130,IDR9-0908,46.66522964,-115.5475071
Chenango,NY,9/19/2013,291.32,1003131,NYR9-0901,42.42297,-75.63217
,TX,9/18/2013,,1003132,TXRF-0004,30.28716223,-98.89556977
Whitman,WA,9/18/2013,461.82,1003133,WARO-1044,47.06691,-117.9593
Lauderdale,AR,9/19/2013,65.74,1003134,ARR9-0901,35.62598092,-89.87932864
,OR,9/19/2013,,1003135,ORRF-0105,43.96473417,-122.9824134
San Saba,TX,9/19/2013,363.81,1003136,TXRM-1006,31.37882,-98.77938
Broome,NY,9/20/2013,252.06,1003137,NYRO-1054,42.10099,-75.91594
Polk,WI,9/19/2013,290.24,1003138,WIS9-0932,45.26919,-92.49502
Harney,OR,9/18/2013,1385.58,1003139,ORLS-1096,42.04489,-118.4328
Harney,OR,9/17/2013,1254.31,1003140,ORRO-1058,43.1829,-118.878
St. Francois,MO,9/19/2013,204.47,1003141,MOR9-0909,37.88325,-90.54442
Wilcox,AL,9/20/2013,45.66,1003142,ALS9-0920,32.12422056,-87.52831805
,NC,9/18/2013,,1003143,NCRF-0003,35.08239309,-79.58954269
Dallas,AL,9/19/2013,48.15,1003144,ALSS-1066,32.25358,-87.00951
Cumberland,NC,9/19/2013,17.49,1003145,NCR9-0909,35.17608,-78.80974
Cumberland,NC,9/20/2013,12.82,1003146,NCR9-0908,34.92337,-78.7982
La Plata,CO,9/20/2013,1924.29,1003147,COLS-1065,37.0711,-107.6141
,OR,9/20/2013,,1003148,ORRF-0101,45.9315795,-123.1638587
Archuleta,CO,9/19/2013,2007.56,1003149,CORM-1003,37.10819,-107.0449
,OR,9/22/2013,,1003150,ORRF-0102,45.27723527,-123.7643474
Pike,AL,9/22/2013,114.55,1003151,ALS9-0921,31.86806513,-85.76601507
Kent,RI,9/23/2013,43.99,1003152,RISS-1081,41.60206,-71.72025
Greene,NY,9/23/2013,565.87,1003153,NYSS-1242,42.31599,-74.32653
Albany,NY,9/22/2013,36.59,1003154,NYSS-1255,42.55374,-73.82504
Portage,WI,9/23/2013,294.12,1003155,WISS-1168,44.43671,-89.22238
Chase,KS,9/23/2013,379.63,1003156,KSRS-1330,38.40248,-96.74899
Gunnison,CO,9/22/2013,3042.13,1003157,COS9-0931,38.60455418,-106.4649269
Gunnison,CO,9/23/2013,3161.39,1003158,COSS-1109,38.76933,-106.4589
Izard,AR,9/23/2013,200.59,1003159,ARS9-0945,36.23849513,-91.90776753
Johnson,MO,9/23/2013,236.32,1003160,MOLS-1085,38.90049,-93.97752
Chenango,NY,9/24/2013,292.62,1003161,NYRM-1007,42.28799,-75.48149
Morgan,MO,9/24/2013,203.66,1003162,MOR9-0910,38.68744,-92.94992
Mineral,MT,9/24/2013,837.89,1003163,MTR9-0901,47.06636,-114.7699
Gunnison,CO,9/24/2013,2350.16,1003164,CORM-1002,38.56961,-106.9425
Arkansas,AR,9/24/2013,59.44,1003165,ARSS-1091,34.39702,-91.53054
Athens,OH,9/24/2013,216.56,1003166,OHLS-1068,39.33002,-82.26817
Douglas,OR,9/24/2013,178.88,1003167,ORR9-0908,43.31057,-123.2115
Rockingham,VA,9/23/2013,329.39,1003168,VAR9-0905,38.30562,-78.90091
Woodson,KS,9/24/2013,296.04,1003169,KSS9-0934,37.88165,-95.67601
Washington,RI,9/25/2013,24.07,1003170,RISS-1082,41.49712,-71.48931
Eagle,CO,9/25/2013,1871.6,1003171,COR9-0908,39.65512778,-107.0671515
Page,VA,9/24/2013,189.72,1003172,VARS11-139,38.7744,-78.3884
Gila,AZ,9/24/2013,673.53,1003173,AZRM-1004,33.62222,-110.9257
Ulster,NY,9/25/2013,136.31,1003174,NYS9-0929,41.59626,-74.36753
Bradford,PA,9/25/2013,227.75,1003175,PAR9-0906,41.9699,-76.51192
Langlade,WI,9/25/2013,421.15,1003176,WISS-1165,45.28534,-88.72088
Audrain,MO,9/25/2013,220.53,1003177,MOS9-0932,39.21987,-91.92117
,NH,9/25/2013,,1003178,NHRF-0003,44.1627953,-71.09431817
Sonoma,CA,9/25/2013,88.89,1003179,CAR9-0903,38.81627171,-123.0111924
Eagle,CO,9/26/2013,2764.66,1003180,COLS-1068,39.42576,-106.4124
Missoula,MT,9/25/2013,1016.06,1003181,MTRO-1064,46.89505,-113.8148
Orange,NY,9/26/2013,120.46,1003182,NYLS-1115,41.29257,-74.47551
,TX,9/25/2013,,1003183,TXRF-0005,31.94145908,-95.87358229
Jackson,OR,9/26/2013,301.38,1003184,ORR9-0904,42.41324,-123.158
Susquehanna,PA,9/26/2013,259.83,1003185,PARM-1007,41.97147,-75.74881
King and Queen,VA,9/26/2013,3.48,1003194,VARS11-129,37.8312,-77.1222
Lee,AR,9/26/2013,52.25,1003195,ARR9-0907,34.8014198,-90.77003066
Columbia,AR,9/25/2013,64.69,1003196,ARRO-1023,33.19634,-93.39313
Pierce,WA,9/25/2013,18.39,1003197,WARO-1041,47.25138,-122.2432
,NC,9/27/2013,,1003198,NCRF-0005,34.74249011,-77.02223998
Marathon,WI,9/26/2013,411.36,1003199,WILS-1092,45.01127,-89.30812
Chowan,NC,9/27/2013,0.0,1003200,NCR9-0907,36.15021,-76.73789
Berkshire,MA,9/27/2013,224.09,1003201,MASS-1073,42.20524,-73.3509
Summit,UT,9/30/2013,1656.2,1003212,UTR9-0903,40.98295,-111.4506
Arkansas,AR,9/30/2013,42.82,1003262,ARR9-0902,34.35270394,-91.10541947
Taliaferro,GA,10/1/2013,137.72,1003263,GASS-1082,33.55278,-82.73688
Walker,GA,10/2/2013,582.58,1003264,GASS-1077,34.6743,-85.48737
Middlesex,MA,9/30/2013,35.32,1003265,MARO-1020,42.53424,-71.30086
Franklin,MA,10/1/2013,85.56,1003266,MARO-1021,42.57532,-72.70657
Franklin,MA,9/29/2013,94.1,1003267,MAS9-0916,42.70917,-72.45897
La Paz,AZ,4/28/2014,73.5,1003456,AZR9-0913,33.47634212,-114.6053022
Riverside,AZ,4/28/2014,81.46,1003457,AZRM-1001,33.6684,-114.5313
Cochise,AZ,5/6/2014,1247.44,1003458,AZLS-1054,31.51466,-110.1282
Greenlee,AZ,5/7/2014,1419.23,1003459,AZR9-0904,33.29395085,-109.494703
Greenlee,AZ,5/8/2014,1281.88,1003460,AZRO-1031,33.29637,-109.1921
Calhoun,FL,5/12/2014,16.89,1003461,FLS9-0917,30.29491628,-85.29384067
Bradford,FL,5/12/2014,40.13,1003462,FLS9-0921,30.1072406,-82.13395911
San Miguel,NM,5/12/2014,2500.47,1003463,NMSS-1081,35.88864,-105.448
Gray,TX,5/13/2014,834.73,1003464,TXSS-1209,35.27405,-100.7662
Gulf,FL,5/13/2014,1.41,1003465,FLR9-0902,29.98458621,-85.03298899
Apache,AZ,5/13/2014,2587.21,1003466,AZSS-1111,36.4193,-109.1022
St. Lucie,FL,5/13/2014,7.19,1003467,FLSS-1069,27.32147,-80.57938
De Baca,NM,5/13/2014,1136.19,1003468,NMR9-0906,34.00485,-104.3148
Roberts,TX,5/14/2014,758.72,1003471,TXR9-0905,35.97241,-100.8244
Leon,FL,5/14/2014,10.28,1003472,FLR9-0901,30.35243432,-84.68591558
San Miguel,NM,5/14/2014,1974.39,1003473,NMS9-0926,35.77146,-105.0074
Walton,FL,5/14/2014,58.12,1003474,FLSS-1068,30.7611,-86.26433
Toombs,GA,5/14/2014,27.0,1003475,GARO-1038,32.1258,-82.19105
Colbert,AL,5/14/2014,127.27,1003476,ALS9-0917,34.69505835,-87.76208738
Guadalupe,NM,5/14/2014,1355.89,1003477,NMRM-1002,34.80287,-104.6276
Rio Arriba,NM,5/15/2014,2300.74,1003478,NMS9-0920,36.1106,-105.7319
Navajo,AZ,5/14/2014,1951.47,1003479,AZLS-1048,36.70098,-110.5256
Navajo,AZ,5/14/2014,1974.13,1003480,AZLS-1063,36.72811,-110.5395
Navajo,AZ,5/15/2014,1838.6,1003481,AZSS-1121,36.8397,-110.6755
Okeechobee,FL,5/15/2014,9.94,1003482,FLR9-0903,27.41501906,-81.13116611
Potter,TX,5/15/2014,929.24,1003483,TXR9-0923,35.45114,-102.0051
Potter,TX,5/15/2014,987.2,1003484,TXSS-1205,35.39091,-101.8318
Perry,MS,5/16/2014,59.63,1003485,MSS9-0913,31.05989,-88.8882
Chaves,NM,5/16/2014,1786.26,1003486,NMR9-0903,32.92507,-105.3375
Santa Fe,NM,5/16/2014,1816.31,1003487,NMLS-1045,35.3899,-105.9688
,FL,5/16/2014,,1003488,FLRF-0001,30.76142742,-81.96743019
Highlands,FL,5/18/2014,9.94,1003489,FLLS-1049,27.41211,-81.14119
Highlands,FL,5/16/2014,30.5,1003490,FLS9-0919,27.05895881,-81.38416097
St. Johns,FL,5/18/2014,4.71,1003491,FLS9-0922,29.77762355,-81.30897471
Jackson,FL,5/18/2014,30.98,1003492,FLS9-0923,30.75285334,-85.25415423
Greene,MS,5/18/2014,34.98,1003493,MSLS-1038,31.22619,-88.79175
San Miguel,NM,5/18/2014,2655.13,1003494,NMSS-1085,35.71713,-105.4943
Monroe,MS,5/16/2014,59.69,1003495,MSR9-0901,34.00166,-88.51833
Kent,TX,5/19/2014,596.52,1003496,TXRO-1079,33.05219,-100.7694
Newton,MS,5/19/2014,107.03,1003497,MSLS-1040,32.26957,-89.10569
San Miguel,NM,5/19/2014,1742.72,1003498,NMR9-0901,35.79088,-104.6117
Leon,FL,5/19/2014,25.57,1003499,FLRO-1024,30.58699,-84.35733
,TX,5/20/2014,,1003501,TXRF-0001,30.26057949,-95.0936133
,TX,5/19/2014,,1003502,TXRF-0003,32.28046405,-97.97061419
Taylor,FL,5/20/2014,13.5,1003503,FLS9-0918,30.18840677,-83.60818538
Escambia,FL,5/19/2014,15.02,1003504,FLS9-0915,30.51884624,-87.29779287
,KS,5/19/2014,,1003505,KSRF-0005,39.73790051,-101.8768888
,TX,5/18/2014,,1003506,TXRF-0007,33.30607519,-100.5327052
Dale,AL,5/20/2014,44.46,1003507,ALR9-0905,31.34380862,-85.60881312
Labette,KS,5/20/2014,237.92,1003509,KSRS-1260,37.03778,-95.08089
Newton,MS,5/20/2014,135.41,1003510,MSS9-0916,32.49147,-89.15185
,NM,5/20/2014,,1003511,NMRF-0009,36.06703407,-104.3720694
Mora,NM,5/20/2014,1916.12,1003512,NMRO-1028,35.8127,-104.906
Kane,UT,5/20/2014,1717.57,1003513,UTS9-0929,37.51017,-112.0337
Colfax,NM,5/21/2014,2138.01,1003514,NMS9-0925,36.79741,-104.8783
Butler,AL,5/21/2014,74.61,1003515,ALLS-1039,31.65539,-86.71585
Kemper,MS,5/21/2014,78.7,1003516,MSS9-0915,32.80646,-88.55028
Washington,UT,5/21/2014,858.43,1003517,UTRM-1008,37.17928,-113.3778
,TX,5/22/2014,,1003518,TXRF-0002,29.40831942,-99.32706902
Gilchrist,FL,5/21/2014,7.98,1003519,FLRO-1025,29.83141,-82.66405
Riverside,CA,5/20/2014,169.37,1003520,CALS-1089,33.93082,-117.594
Glynn,GA,5/21/2014,0.08,1003521,GARO-1032,31.34047,-81.48489
Oktibbeha,MS,5/22/2014,90.98,1003522,MSLS-1039,33.37182,-88.99623
Colfax,NM,5/22/2014,2148.2,1003523,NMLS-1047,36.48122,-105.0151
,NM,5/22/2014,,1003524,NMRF-0001,36.22153658,-103.8506888
Washington,UT,5/22/2014,789.08,1003525,UTS9-0931,37.07694,-113.597
,NM,5/21/2014,,1003526,NMRF-0002,36.58843462,-103.3148676
Leflore,MS,5/23/2014,32.52,1003527,MSSS-1082,33.50947,-90.41456
,TX,5/23/2014,,1003529,TXRF-0008,31.21006848,-100.4620152
Clay,FL,5/23/2014,32.35,1003530,FLLS-1047,30.01741,-81.97161
Socorro,NM,5/23/2014,1434.71,1003531,NMRM-1001,34.35425,-106.8532
Bradford,FL,5/26/2014,40.13,1003532,FLS9-0921,30.1072406,-82.13395911
Tallapoosa,AL,5/23/2014,203.75,1003533,ALLS-1042,33.09741,-85.84587
Macon,AL,5/22/2014,65.86,1003534,ALR9-0902,32.48594217,-85.72031495
Catron,NM,5/26/2014,1880.51,1003535,NMR9-0904,33.30077,-108.1255
Clark,NV,5/26/2014,146.71,1003536,NVR9-0902,35.07424,-114.6043
Palm Beach,FL,5/21/2014,5.15,1003537,FLSS-1076,26.625,-80.16233
Gulf,FL,5/27/2014,1.41,1003538,FLR9-0902,29.98458621,-85.03298899
Placer,CA,5/27/2014,51.09,1003539,CASS-1215,38.97275,-121.2915
Socorro,NM,5/27/2014,1820.31,1003540,NMRO-1030,33.55138,-107.5537
La Paz,AZ,5/28/2014,73.5,1003542,AZR9-0913,33.47634212,-114.6053022
Rio Arriba,NM,5/28/2014,2318.76,1003543,NMLS-1044,36.57492,-106.0472
Young,TX,5/28/2014,339.32,1003544,TXRM-1015,33.23304,-98.90742
,GA,5/27/2014,,1003547,GARF-0003,34.89942821,-83.53970114
Cobb,GA,5/28/2014,232.57,1003549,GARM-1002,33.87507,-84.44903
Placer,CA,5/28/2014,1700.24,1003550,CASS-1278,39.14468,-120.4665
Napa,CA,5/29/2014,143.63,1003551,CASS-1339,38.59731,-122.5984
Calhoun,FL,5/29/2014,6.36,1003552,FLRM-1001,30.21423,-85.11154
Valencia,NM,5/29/2014,1468.98,1003553,NMR9-0902,34.75015,-106.7425
San Juan,NM,5/29/2014,1548.48,1003554,NMRM-1005,36.75052,-108.4182
Wise,TX,5/29/2014,227.21,1003555,TXRO-1082,33.20418,-97.80536
San Miguel,NM,5/30/2014,1974.39,1003557,NMS9-0926,35.77146,-105.0074
,GA,5/30/2014,,1003558,GARF-0001,34.24611101,-84.68597444
Jasper,SC,6/1/2014,11.51,1003559,SCSS-1058,32.46543,-81.03892
Pickens,GA,5/29/2014,284.17,1003560,GALS-1052,34.51919,-84.59084
,GA,5/28/2014,,1003561,GARF-0002,31.22270864,-84.46812358
Leon,FL,5/28/2014,10.28,1003562,FLR9-0901,30.35243432,-84.68591558
,GA,6/2/2014,,1003564,SCRF-0002,32.68479431,-81.05107996
San Juan,UT,6/2/2014,1195.14,1003565,UTR9-0906,38.3528,-109.7535
McClain,OK,6/2/2014,311.75,1003566,OKRM-1021,35.02582,-97.35414
Ionia,MI,6/2/2014,220.94,1003567,MIR9-0907,42.82316,-84.93878
Lawrence,KY,9/10/2014,169.43,1003568,KYR9-0906,37.97943,-82.67112
Montgomery,OH,9/4/2014,245.93,1003569,OHRO-1034,39.90839,-84.29816
Grant,ND,6/3/2014,628.02,1003570,NDSS-1131,46.55055,-101.705
Cass,IA,6/3/2014,362.63,1003571,IAS9-0919,41.37959378,-94.89794017
Union,IN,6/3/2014,268.7,1003572,INS9-0925,39.6101,-84.95963
Colleton,SC,6/3/2014,1.22,1003573,SCSS-1054,32.72384,-80.49558
Emery,UT,6/3/2014,1425.71,1003574,UTR9-0907,39.30653,-110.4052
Fresno,CA,6/3/2014,2128.02,1003575,CASS-1226,37.11441,-119.1693
Harding,SD,6/3/2014,875.31,1003576,SDS9-0944,45.90933,-103.429
Jefferson,WV,6/3/2014,101.21,1003577,WVRM-1001,39.2489,-77.8141
Cooper,MO,6/2/2014,182.38,1003578,MORO-1049,38.89431,-93.02175
Cochise,AZ,6/4/2014,1247.44,1003579,AZLS-1054,31.51466,-110.1282
Grady,OK,6/3/2014,366.17,1003580,OKSS-1444,34.85096,-97.91055
Presidio,TX,6/4/2014,785.22,1003581,TXRM-1017,29.61204,-104.4674
Maries,MO,6/4/2014,179.12,1003582,MOR9-0905,38.24012,-91.80405
Clarendon,SC,6/4/2014,30.27,1003583,SCS9-0920,33.82362,-80.06803
Meade,SD,6/4/2014,721.21,1003586,SDR9-0919,44.39509,-102.8051
Cochise,AZ,6/5/2014,1689.63,1003587,AZSS-1116,31.88153,-109.2165
Rapides,LA,6/4/2014,20.36,1003588,LAS9-0945,31.33362,-92.50204
Catahoula,LA,6/3/2014,12.02,1003589,LAR9-0904,31.55119,-91.80545
El Dorado,CA,6/5/2014,1117.21,1003590,CASS-1181,38.73232,-120.4784
Calaveras,CA,6/4/2014,219.18,1003591,CARO-1043,38.18245,-120.701
Itasca,MN,6/5/2014,390.14,1003592,MNRM-1004,47.30733,-93.83196
Crawford,MO,6/5/2014,186.84,1003593,MORO-1048,38.09329,-91.13971
Grant,ND,6/5/2014,646.23,1003594,NDSS-1115,46.61594,-102.0195
Morgan,WV,6/5/2014,335.77,1003595,WVS9-0924,39.472,-78.36353
Oliver,ND,6/8/2014,505.79,1003596,NDR9-0921,47.28029,-101.1779
Horry,SC,6/6/2014,5.53,1003597,SCR9-0901,33.88391,-78.78474
Florence,SC,6/5/2014,5.49,1003598,SCR9-0902,33.90909,-79.4403
Brewster,TX,6/6/2014,618.21,1003599,TXRM-1001,29.02616,-103.3128
Val Verde,TX,6/8/2014,359.22,1003600,TXR9-0902,29.77151,-101.7318
Monroe,MS,6/8/2014,58.05,1003601,MSR9-0902,33.91374,-88.53107
Lee,FL,6/8/2014,3.88,1003602,FLSS-1107,26.66816,-81.98964
El Paso,CO,6/9/2014,1691.8,1003603,CORO-1032,38.6962,-104.7115
Jefferson,PA,6/9/2014,417.77,1003604,PASS-1165,41.02335,-78.90572
San Joaquin,CA,6/9/2014,12.94,1003605,CARO-1047,38.1522,-121.2841
Dickey,ND,6/9/2014,392.35,1003606,NDR9-0918,45.97889,-98.16758
,OR,6/7/2014,,1003607,ORRF-0113,42.80640485,-124.3893986
,OR,6/8/2014,,1003608,ORRF-0115,42.72616342,-124.2710941
Polk,MO,6/9/2014,276.42,1003609,MOS9-0940,37.76799,-93.58094
,MS,6/9/2014,,1003610,MSRF-0002,32.98167208,-89.38315171
,OK,6/9/2014,,1003611,OKRF-0101,35.28664804,-95.26315121
Windsor,VT,6/9/2014,176.17,1003612,VTR9-0902,43.79297,-72.67631
Braxton,WV,6/9/2014,263.07,1003613,WVSS-1042,38.65011,-80.76148
Fayette,IA,6/10/2014,290.77,1003614,IARO-1018,43.00886,-91.87465
Pueblo,CO,6/10/2014,1464.46,1003615,CORO-1035,38.35013,-104.6111
Stark,ND,6/10/2014,696.37,1003616,NDSS-1112,46.83159,-102.5029
,UT,6/10/2014,,1003617,UTRF-0001,37.55186946,-113.4090789
Warren,PA,6/10/2014,357.54,1003618,PASS-1164,41.74656,-79.30665
Yankton,SD,6/10/2014,349.98,1003619,SDR9-0913,42.8542,-97.28016
San Joaquin,CA,6/10/2014,0.0,1003620,CARO-1040,38.12113,-121.5295
Sarasota,FL,6/10/2014,5.63,1003621,FLLS-1063,27.09596,-82.21519
Columbus,NC,6/9/2014,18.95,1003622,NCRO-1015,34.32929,-79.03643
Dillon,SC,6/8/2014,21.94,1003623,SCRO-1015,34.3282,-79.32
Sedgwick,KS,6/10/2014,405.65,1003624,KSRS-1314,37.63481,-97.75061
Laclede,MO,6/10/2014,297.7,1003625,MOR9-0908,37.53898,-92.36536
Franklin,VT,6/10/2014,116.06,1003626,VTRS-1011,44.65121,-72.97038
Winneshiek,IA,6/11/2014,341.4,1003627,IASS-1091,43.16721,-91.67862
Coos,NH,6/10/2014,296.21,1003628,NHS9-0913,44.39319,-71.21993
Meade,SD,6/10/2014,974.68,1003629,SDSS-1195,44.38846,-103.4086
Teton,MT,6/10/2014,1340.3,1003630,MTR9-0918,47.61666,-112.6811
,WV,6/10/2014,,1003631,WVRF-0004,39.32045455,-79.68259186
,OK,6/11/2014,,1003632,OKRF-0004,36.24905178,-95.73395904
Mendocino,CA,6/10/2014,385.07,1003633,CALS-1098,39.75739,-123.7248
Elk,PA,6/11/2014,467.13,1003634,PASS-1167,41.28689,-78.52937
Santa Rosa,FL,6/11/2014,42.37,1003635,FLS9-0929,30.96981875,-86.99358916
Avoyelles,LA,6/11/2014,10.87,1003636,LARM-1003,31.23039,-91.92194
Otter Tail,MN,6/11/2014,400.46,1003637,MNLS-1096,46.61228,-96.03441
Rio Arriba,NM,6/11/2014,2952.03,1003638,NMS9-0924,36.78886,-106.2405
Windsor,VT,6/11/2014,133.19,1003639,VTR9-0904,43.79749,-72.5009
Buffalo,NE,6/9/2014,615.66,1003641,NER9-0913,40.78429,-98.73232
Thayer,NE,6/10/2014,449.5,1003642,NES9-0931,40.24371,-97.53552
Braxton,WV,6/10/2014,240.31,1003643,WVR9-0904,38.58809,-80.89452
Gilmer,WV,6/11/2014,281.42,1003644,WVS9-0925,38.80394,-80.89189
Delaware,IA,6/12/2014,258.63,1003645,IAS9-0927,42.61752155,-91.28994821
Clay,NE,6/11/2014,507.49,1003646,NER9-0908,40.35743,-98.13044
Humboldt,IA,6/11/2014,338.1,1003647,IASS-1092,42.88145,-94.2817
Valencia,NM,6/12/2014,1468.98,1003648,NMR9-0902,34.75015,-106.7425
Butte,CA,6/11/2014,51.29,1003649,CARM-1014,39.88092,-122.0575
Carroll,NH,6/12/2014,129.97,1003650,NHS9-0911,43.81879,-71.19524
Mellette,SD,6/12/2014,739.32,1003651,SDLS-1110,43.40178,-100.9843
Garfield,UT,6/11/2014,2773.74,1003652,UTSS-1100,38.01992,-111.6545
,UT,6/12/2014,,1003653,UTRF-0002,38.18247142,-111.1541026
Baldwin,AL,6/12/2014,0.11,1003654,ALLS-1041,30.69485,-87.92435
Crow Wing,MN,6/12/2014,349.29,1003655,MNRM-1008,46.26806,-94.34819
Delaware,PA,6/12/2014,0.0,1003656,PASS-1166,39.88029105,-75.27583202
Winnebago,IA,6/12/2014,361.71,1003657,IAS9-0922,43.35914965,-93.86842916
Washington,MO,6/12/2014,282.3,1003658,MOLS-1082,37.91398,-90.825
White Pine,NV,6/12/2014,1875.85,1003659,NVS9-0924,39.21429,-114.5413
,OK,6/13/2014,,1003664,OKRF-0003,36.18364652,-98.92051469
Grant,NM,6/13/2014,1406.73,1003666,NMRM-1007,33.03974,-108.5324
Sevier,UT,6/13/2014,1852.19,1003667,UTLS-1059,38.80907,-111.316
,ND,6/15/2014,,1003668,NDRF-0001,46.59191509,-101.7355341
Kershaw,SC,6/13/2014,39.15,1003669,SCR9-0903,34.12622,-80.65031
,SC,6/12/2014,,1003670,SCRF-0001,33.31078493,-81.19277718
Clarendon,SC,6/10/2014,21.3,1003671,SCS9-0922,33.76763,-80.07379
Tripp,SD,6/13/2014,497.81,1003672,SDRM-1005,43.68389,-100.2087
Macon,AL,6/14/2014,65.86,1003673,ALR9-0902,32.48594217,-85.72031495
Colbert,AL,6/15/2014,127.27,1003674,ALS9-0917,34.69505835,-87.76208738
,OR,6/12/2014,,1003675,ORRF-0108,44.97613893,-118.7487711
,OR,6/11/2014,,1003676,ORRF-0110,44.09827196,-118.5869347
,OR,6/14/2014,,1003677,ORRF-0119,44.12160949,-118.3435238
Sweetwater,WY,6/16/2014,1910.5,1003678,WYR9-0902,41.59625,-109.1488
Carroll,MD,6/16/2014,235.09,1003679,MDS9-0918,39.69017,-76.93024
Newport,RI,6/16/2014,15.01,1003680,RISS-1079,41.56816,-71.18604
Slope,ND,6/16/2014,826.6,1003681,NDLS-1067,46.33039,-102.9981
,SD,6/16/2014,,1003682,SDRF-0002,45.73475317,-100.6147894
Atoka,OK,6/16/2014,143.71,1003683,OKLS-1204,34.17387,-96.08742
Pushmataha,OK,6/16/2014,137.25,1003684,OKLS-1209,34.30293,-95.65807
Lancaster,SC,6/15/2014,143.13,1003685,SCRM-1001,34.93019,-80.8684
Anderson,SC,6/16/2014,235.18,1003686,SCRO-1013,34.70969,-82.46106
Carbon,UT,6/16/2014,2423.32,1003687,UTSS-1110,39.61126,-111.0646
Montgomery,MD,6/17/2014,188.44,1003688,MDSS-1090,39.32064,-77.20777
Wapello,IA,6/17/2014,213.53,1003689,IASS-1093,41.14847,-92.53798
Routt,CO,6/17/2014,2329.39,1003690,COSS-1095,40.64981,-106.9236
Navajo,AZ,6/17/2014,1951.47,1003691,AZLS-1048,36.70098,-110.5256
Phillips,MT,6/17/2014,693.78,1003692,MTR9-0919,48.14733,-107.549
Reeves,TX,6/17/2014,824.54,1003693,TXR9-0911,31.77034,-103.7793
Stanislaus,CA,6/17/2014,9.43,1003694,CAR9-0910,37.59637606,-121.1287613
Tallahatchie,MS,6/16/2014,48.54,1003695,MSSS-1081,34.14459,-90.10347
Echols,GA,6/17/2014,26.81,1003696,GAR9-0901,30.70226826,-83.0338573
Natchitoches,LA,6/12/2014,28.64,1003697,LAR9-0902,31.6265,-92.90921
Adams,ND,6/17/2014,802.24,1003698,NDLS-1072,45.97747,-102.9781
Grant,OR,6/17/2014,631.93,1003699,ORRM-1003,44.63184,-119.6373
,SD,6/17/2014,,1003700,SDRF-0003,45.33649082,-103.3416364
Sierra,CA,6/17/2014,1605.45,1003701,CASS-1248,39.66106,-120.8893
Sabine,LA,6/17/2014,68.25,1003703,LASS-1049,31.77988,-93.58421
St. Louis,MN,6/19/2014,396.42,1003704,MNR9-0916,46.94815,-92.43222
,MN,6/17/2014,,1003705,MNRF-0002,43.79339471,-91.48405527
Spartanburg,SC,6/17/2014,228.17,1003706,SCLS-1031,34.96664,-82.10085
McKenzie,ND,6/17/2014,564.41,1003707,NDR9-0908,47.97871,-103.8253
Essex,VT,6/16/2014,287.71,1003708,VTRS-1009,44.5708,-71.59714
Windsor,VT,6/17/2014,290.13,1003709,VTRS-1061,43.82188,-72.64266
Wetzel,WV,6/17/2014,333.68,1003710,WVSS-1043,39.65962,-80.59558
,NH,6/17/2014,,1003711,NHRF-0001,42.91112992,-71.99574538
Caroline,MD,6/18/2014,7.64,1003712,MDSS-1081,38.76444,-75.73556
Bowman,ND,6/18/2014,859.57,1003713,NDSS-1133,46.27863,-104.0273
Gregory,SD,6/17/2014,458.8,1003714,SDSS-1201,43.04438,-98.72007
,WV,6/17/2014,,1003715,WVRF-0005,38.1078938,-80.20821164
Grand,CO,6/18/2014,2746.92,1003716,COSS-1111,40.16962,-106.5673
,ND,6/18/2014,,1003717,NDRF-0002,46.25339821,-103.9119045
Tom Green,TX,6/18/2014,564.87,1003718,TXLS-1117,31.4733,-100.4694
Okanogan,WA,6/17/2014,238.65,1003719,WARM-1005,48.05018,-119.6806
Lincoln,WV,6/16/2014,220.29,1003720,WVSS-1045,38.22115,-81.88153
Preston,WV,6/18/2014,509.01,1003721,WVSS-1047,39.56015,-79.75748
Gila,AZ,6/18/2014,810.04,1003722,AZLS-1072,33.71384,-110.8185
Mesa,CO,6/18/2014,2941.35,1003723,COSS-1114,39.15753,-107.7973
Cass,IA,6/18/2014,362.63,1003724,IAS9-0919,41.37959378,-94.89794017
Cass,ND,6/18/2014,282.51,1003725,NDR9-0909,46.76208,-97.19334
Union,SC,6/18/2014,114.02,1003726,SCR9-0904,34.57048,-81.77745
Caledonia,VT,6/18/2014,215.4,1003727,VTRS-1005,44.31131,-72.10034
,SD,6/18/2014,,1003728,SDRF-0004,43.64373109,-101.7829464
Okanogan,WA,6/18/2014,292.98,1003729,WARM-1002,48.13943,-119.0654
Cabell,WV,6/19/2014,179.5,1003731,WVS9-0926,38.46936,-82.27878
Wilcox,GA,6/18/2014,53.49,1003732,GAR9-0906,32.0082543,-83.29546049
Oconee,SC,6/19/2014,255.53,1003733,SCS9-0921,34.7692,-83.01151
Cumberland,IL,6/19/2014,189.69,1003734,ILS9-0922,39.34781,-88.05272
Merced,CA,6/19/2014,21.86,1003735,CARO-1042,37.39213,-120.7909
Sioux,ND,6/19/2014,494.31,1003738,NDRM-1002,46.41016,-100.6711
Humboldt,NV,6/18/2014,1502.32,1003739,NVLS-1069,41.99317,-117.528
Humboldt,NV,6/17/2014,1331.29,1003740,NVR9-0917,41.00565,-117.3393
Carbon,WY,6/19/2014,1950.43,1003741,WYRO-1034,41.02374,-107.504
Tehama,CA,6/19/2014,103.19,1003742,CALS-1115,39.98053,-121.9723
Sierra,CA,6/18/2014,1286.58,1003743,CAS9-0923,39.59862885,-120.9971607
Tom Green,TX,6/19/2014,517.99,1003744,TXRO-1078,31.53799,-100.1848
Wheeler,OR,6/19/2014,533.22,1003745,ORRM-1006,44.82284,-119.85
Madison,MS,6/18/2014,90.62,1003746,MSR9-0905,32.58246,-89.8487
Crawford,IA,6/19/2014,419.13,1003747,IALS-1055,41.99173,-95.12794
Ascension,LA,6/19/2014,3.58,1003748,LARM-1002,30.12132,-90.91755
,NH,6/19/2014,,1003749,NHRF-0002,43.78668413,-71.20800037
Routt,CO,6/20/2014,1932.25,1003750,CORM-1004,40.51533,-107.236
Marion,MS,6/20/2014,82.58,1003751,MSS9-0917,31.19723,-89.69055
Stanislaus,CA,6/18/2014,9.02,1003752,CARM-1006,37.55588,-121.1505
,MN,6/20/2014,,1003753,MNRF-0005,46.78465,-95.14900366
Oliver,ND,6/22/2014,505.79,1003754,NDR9-0921,47.28029,-101.1779
,OR,6/18/2014,,1003755,ORRF-0107,45.6394315,-117.7274075
Coffee,AL,6/23/2014,51.67,1003756,ALRO-1020,31.41142,-86.06452
Butte,CA,6/23/2014,24.79,1003757,CARO-1050,39.38059,-121.633
Dixie,FL,6/22/2014,1.47,1003758,FLRM-1002,29.75396,-82.94206
Big Horn,MT,6/23/2014,967.51,1003759,MTS9-0927,45.43382,-107.7782
Powell,MT,6/23/2014,2019.58,1003760,MTSS-1289,46.40587,-112.3704
Dickey,ND,6/23/2014,392.35,1003761,NDR9-0918,45.97889,-98.16758
Osage,OK,6/23/2014,266.59,1003762,OKSS-1431,36.76012,-96.28956
,OR,6/16/2014,,1003763,ORRF-0116,45.3781597,-117.6532567
Bradford,PA,6/23/2014,238.97,1003764,PARO-1049,41.9999,-76.62264
,OR,6/21/2014,,1003765,ORRF-0118,45.9547295,-117.7860326
Oliver,ND,6/24/2014,620.89,1003766,NDLS-1065,47.14528,-101.3734
Cherry,NE,6/23/2014,942.59,1003767,NES9-0922,42.09737,-101.1665
Tattnall,GA,6/24/2014,20.39,1003768,GARO-1034,31.98338,-82.13766
,MN,6/24/2014,,1003769,MNRF-0004,47.31549167,-91.78944352
St. Charles,MO,6/24/2014,128.16,1003771,MOR9-0912,38.82912,-90.41661
Big Horn,MT,6/24/2014,1595.12,1003772,MTS9-0948,45.00148,-107.6834
Bradford,PA,6/24/2014,195.49,1003773,PARM-1003,41.71462,-76.32307
Yankton,SD,6/24/2014,349.98,1003774,SDR9-0913,42.8542,-97.28016
Harding,SD,6/24/2014,875.31,1003775,SDS9-0944,45.90933,-103.429
Val Verde,TX,6/24/2014,359.22,1003776,TXR9-0902,29.77151,-101.7318
Rutland,VT,6/24/2014,120.0,1003777,VTRS-1006,43.74102,-73.24526
Whitman,WA,6/24/2014,195.84,1003778,WARM-1004,46.69022,-117.4968
Merrimack,NH,6/24/2014,72.29,1003779,NHRM-1004,43.26269,-71.5564
,MN,6/25/2014,,1003780,MNRF-0001,47.6502476,-91.60248863
Stanislaus,CA,6/25/2014,10.86,1003781,CARO-1051,37.58872,-121.0651
Bradford,PA,6/25/2014,251.29,1003782,PAS9-0924,41.8317,-76.33241
,OR,6/24/2014,,1003783,ORRF-0109,43.86592866,-122.4081796
Fayette,IL,6/24/2014,149.26,1003784,ILLS-1068,38.90585,-88.99894
Christian,IL,6/20/2014,200.91,1003785,ILS9-0919,39.41046,-89.1314
,MS,6/19/2014,,1003786,MSRF-0003,31.4509456,-90.00999539
Phillips,MT,6/25/2014,674.25,1003787,MTR9-0907,48.34598,-107.5838
Phillips,MT,6/25/2014,674.25,1003788,MTRO-1069,48.34598,-107.5838
Clinton,IL,6/25/2014,134.74,1003789,ILRO-1022,38.72384,-89.4926
Osage,MO,6/25/2014,157.37,1003790,MORM-1007,38.66484,-91.8674
Big Horn,MT,6/25/2014,1274.51,1003791,MTSS-1291,45.19492,-107.7614
Boone,IA,6/25/2014,291.03,1003792,IALS-1052,42.05726,-93.73743
Mellette,SD,6/25/2014,773.32,1003793,SDSS-1196,43.41842,-101.0899
Santa Rosa,FL,6/25/2014,42.37,1003794,FLS9-0929,30.96981875,-86.99358916
George,MS,6/24/2014,9.82,1003795,MSR9-0903,30.88339,-88.77355
Meade,SD,6/25/2014,1475.1,1003796,SDSS-1203,44.29952,-103.5739
Butte,CA,6/24/2014,42.26,1003797,CALS-1087,39.61321,-121.7794
Glenn,CA,6/24/2014,24.82,1003798,CALS-1108,39.40277,-122.1703
Blaine,MT,6/26/2014,714.08,1003799,MTRM-1005,48.50016,-108.8066
Traill,ND,6/26/2014,288.9,1003800,NDR9-0906,47.50223,-97.33886
Morgan,WV,6/25/2014,335.77,1003801,WVS9-0924,39.472,-78.36353
Lincoln,WV,6/26/2014,189.29,1003802,WVSS-1041,38.14842,-82.21046
Hardy,WV,6/24/2014,277.31,1003803,WVLS-1019,39.12646,-78.55908
Zavala,TX,6/26/2014,167.71,1003804,TXRM-1021,28.64427,-99.78095
,MN,6/26/2014,,1003805,MNRF-0009,48.0691,-92.13110832
St. Louis,MN,6/26/2014,397.69,1003806,MNSS-1174,48.29439,-92.74453
Lancaster,NE,6/26/2014,337.93,1003807,NERO-1043,40.89354,-96.60389
Elko,NV,6/25/2014,1728.83,1003808,NVRO-1041,41.78608,-114.9674
Walla Walla,WA,6/25/2014,165.52,1003809,WARM-1008,46.58347,-118.4194
Moffat,CO,6/25/2014,1567.27,1003811,COR9-0907,40.47796874,-108.908221
Moffat,CO,6/24/2014,1628.92,1003812,CORM-1007,40.48799,-108.7551
,MN,6/27/2014,,1003814,MNRF-0003,47.87413305,-94.8982721
Uvalde,TX,6/27/2014,352.25,1003815,TXR9-0924,29.44391,-99.99401
Geneva,AL,6/26/2014,42.22,1003816,ALLS-1037,31.11972,-86.15249
Escambia,AL,6/27/2014,18.66,1003817,ALR9-0903,31.08686327,-87.08175172
,MN,6/29/2014,,1003818,MNRF-0010,48.09914134,-96.11650003
Sherman,OR,6/25/2014,292.04,1003819,ORR9-0907,45.16978,-120.4823
,MN,6/30/2014,,1003820,MNRF-0006,47.84339996,-95.2256244
Canadian,OK,6/30/2014,397.33,1003821,OKRO-1092,35.56492,-97.94991
Lane,OR,6/30/2014,91.55,1003822,ORR9-0901,43.99127,-123.6643
Owyhee,ID,6/30/2014,1454.11,1003823,IDRO-1052,42.8237,-116.8078
Addison,VT,6/30/2014,470.74,1003824,VTRS-1013,43.89401,-73.04
,MN,7/1/2014,,1003825,MNRF-0007,46.02087855,-93.23841042
,OK,7/1/2014,,1003826,OKRF-0002,35.69016411,-95.16564436
Owyhee,ID,7/1/2014,1007.1,1003827,IDS9-0924,42.7527138,-116.0743669
Pope,IL,6/26/2014,120.96,1003828,ILSS-1118,37.57781,-88.65127
Vernon,LA,7/1/2014,84.5,1003829,LAS9-0947,31.36399,-93.19881
Elk,PA,7/1/2014,415.64,1003830,PAR9-0901,41.41992,-78.74775
Grafton,NH,7/1/2014,127.26,1003834,NHR9-0901,44.24308,-72.04818
Lyon,NV,6/30/2014,1714.45,1003835,NVLS-1072,38.4235,-119.0023
King,WA,7/1/2014,11.22,1003836,WAR9-0909,47.69212,-121.9663
,WA,6/28/2014,,1003837,WARF-0108,47.62809627,-124.0173297
,WA,6/29/2014,,1003838,WARF-0109,47.53304013,-123.6790357
New Castle,DE,7/2/2014,19.7,1003839,DESS-1092,39.72249,-75.66642
Dearborn,IN,7/2/2014,139.26,1003840,INRM-1003,39.12838,-84.82103
Cuming,NE,7/2/2014,419.16,1003841,NESS-1134,41.82238,-96.85704
,WI,7/2/2014,,1003842,WIRF-0001,45.9250408,-92.6388705
Rapides,LA,7/2/2014,20.36,1003843,LAS9-0945,31.33362,-92.50204
,WA,7/1/2014,,1003845,WARF-0110,47.8501,-123.951
Thurston,WA,7/2/2014,7.14,1003846,WAS9-0916,47.05149,-122.7213
Pike,MS,7/6/2014,94.84,1003847,MSS9-0919,31.31669,-90.29969
,NY,7/6/2014,,1003848,NYRF-0006,43.25015024,-74.20937
Lincoln,OR,7/2/2014,28.93,1003849,ORR9-0906,44.37292,-123.8363
York,ME,7/7/2014,11.16,1003850,MER9-0905,43.49885,-70.46423
Woodbury,IA,7/7/2014,370.14,1003851,IAS9-0921,42.40438954,-95.87348016
Washington,NY,7/7/2014,31.82,1003852,NYR9-0914,43.25553,-73.5864
Nueces,TX,7/7/2014,11.98,1003853,TXSS-1229,27.56777,-97.79459
,CO,7/7/2014,,1003854,CORF-0003,38.71062187,-108.276548
Oscoda,MI,7/7/2014,303.45,1003855,MIRM-1001,44.67449,-84.32747
Marion,MS,7/7/2014,82.58,1003856,MSS9-0917,31.19723,-89.69055
Creek,OK,7/7/2014,216.45,1003857,OKS9-0941,35.75565,-96.21008
Nicholas,WV,7/7/2014,243.61,1003858,WVLS-1020,38.26276,-81.22258
Coos,NH,7/7/2014,357.9,1003859,NHRM-1002,44.71296,-71.1727
Tazewell,IL,7/8/2014,203.21,1003860,ILS9-0924,40.3726,-89.40746
,WI,7/8/2014,,1003861,WIRF-0010,45.91434511,-89.75702683
Wabash,IN,7/8/2014,197.32,1003862,INRM-1005,40.79022,-85.82739
,NY,7/8/2014,,1003863,NYRF-0004,43.48306505,-73.79940655
Warren,NY,7/8/2014,179.91,1003864,NYRM-1006,43.47235,-73.84035
Mono,CA,7/8/2014,2029.08,1003865,CALS-1102,37.89016,-118.7154
,CO,7/8/2014,,1003866,CORF-0005,38.63685745,-108.418613
Lake,MN,7/8/2014,480.2,1003868,MNSS-1168,47.29311,-91.56625
Cape Girardeau,MO,7/8/2014,100.69,1003869,MOLS-1086,37.25198,-89.66009
Jones,MS,7/8/2014,58.0,1003870,MSR9-0908,31.5687,-89.32066
Dunn,ND,7/8/2014,611.66,1003871,NDLS-1068,47.47418,-102.6896
Dundy,NE,7/8/2014,959.84,1003872,NESS-1128,40.05924,-101.753
Atoka,OK,7/8/2014,248.22,1003873,OKSS-1429,34.54844,-95.89648
Benton,OR,7/8/2014,104.62,1003874,ORRM-1010,45.99067,-118.9969
Montgomery,PA,7/8/2014,25.18,1003875,PAR9-0909,40.14318,-75.51026
Red River,LA,7/8/2014,36.05,1003876,LAR9-0905,32.06618,-93.41412
Blaine,MT,7/8/2014,715.6,1003877,MTR9-0921,47.79247,-109.2768
Daniels,MT,7/8/2014,700.46,1003878,MTS9-0930,48.72955,-105.4412
Haakon,SD,7/8/2014,632.89,1003879,SDRO-1070,44.03291,-101.5472
Woodbury,IA,7/8/2014,372.43,1003880,IAS9-0932,42.44584415,-96.01966152
Asotin,WA,7/8/2014,325.51,1003881,WARM-1003,46.03379,-117.1125
Oscoda,MI,7/8/2014,280.76,1003883,MIR9-0909,44.64747,-84.09452
,NY,7/9/2014,,1003884,NYRF-0003,44.5578658,-73.44390589
Providence,RI,7/9/2014,191.41,1003885,RIS9-0911,41.84804,-71.78683
Mountrail,ND,7/9/2014,637.55,1003886,NDLS-1070,48.39032,-102.7695
,WI,7/9/2014,,1003887,WIRF-0009,46.0325422,-89.9909673
,CO,7/9/2014,,1003888,CORF-0002,39.5646125,-108.500825
Brown,IL,7/9/2014,157.33,1003889,ILSS-1117,39.94937,-90.56089
Lake,MN,7/9/2014,464.04,1003890,MNS9-0931,47.75502,-91.53362
Jefferson,MO,7/9/2014,147.13,1003891,MOSS-1166,38.40648,-90.38821
Frontier,NE,7/9/2014,789.94,1003892,NER9-0911,40.62492,-100.5746
Wallowa,OR,7/9/2014,1464.77,1003893,ORSS-1175,45.87203,-117.9262
DeWitt,TX,7/9/2014,49.85,1003894,TXR9-0906,29.15721,-97.38375
Aroostook,ME,7/9/2014,128.53,1003895,MER9-0901,47.13183,-67.8981
Valley,MT,7/9/2014,762.18,1003896,MTS9-0933,48.94323,-106.8565
Sequoyah,OK,7/9/2014,142.53,1003897,OKSS-1430,35.46899,-94.95436
Philadelphia,PA,7/9/2014,32.33,1003898,PAS9-0915,40.07336,-75.22354
Jones,SD,7/9/2014,537.08,1003899,SDRO-1074,44.10255,-101.0015
Phillips,MT,7/9/2014,685.16,1003901,MTRM-1001,48.36584,-108.1537
Washington,NY,7/10/2014,68.2,1003902,NYRM-1002,43.30507,-73.59358
New Castle,DE,7/9/2014,16.75,1003903,DELS-1038,39.69242,-75.72293
Walla Walla,WA,7/9/2014,363.11,1003904,WAR9-0904,46.27617,-118.1925
Mountrail,ND,7/10/2014,579.42,1003905,NDLS-1073,48.02285,-102.1922
Gonzales,TX,7/10/2014,83.97,1003906,TXLS-1120,29.30338,-97.69902
,CO,7/10/2014,,1003907,CORF-0004,39.50957787,-108.5252735
Mono,CA,7/9/2014,2049.55,1003908,CALS-1099,38.36417,-119.4448
Pike,IL,7/10/2014,210.13,1003909,ILS9-0926,39.59013,-90.8737
St. Louis,MN,7/10/2014,380.42,1003910,MNRO-1050,47.20552,-92.80054
George,MS,7/9/2014,9.82,1003911,MSR9-0903,30.88339,-88.77355
,ID,7/9/2014,,1003912,IDRF-0101,46.50986738,-114.7182129
Idaho,ID,7/7/2014,376.4,1003913,IDR9-0902,46.13488438,-115.9599482
Idaho,ID,7/7/2014,350.26,1003914,IDRM-1003,46.24418,-116.0405
Forrest,MS,7/10/2014,48.97,1003915,MSR9-0906,31.09621,-89.27796
Alpine,CA,7/10/2014,2436.27,1003916,CASS-1271,38.58012,-119.8887
Lyon,KS,7/8/2014,332.65,1003917,KSR9-0915,38.37939,-96.2142
,WA,7/5/2014,,1003918,WARF-0107,48.63427917,-120.4821801
Custer,ID,7/10/2014,1847.52,1003919,IDRM-1005,44.26038,-114.7981
Wayne,PA,7/10/2014,450.64,1003920,PAS9-0914,41.7208,-75.41279
Florence,SC,7/10/2014,5.49,1003921,SCR9-0902,33.90909,-79.4403
Clarendon,SC,7/11/2014,30.27,1003922,SCS9-0920,33.82362,-80.06803
Horry,SC,7/9/2014,5.53,1003923,SCR9-0901,33.88391,-78.78474
,NY,7/11/2014,,1003924,NYRF-0001,42.60626628,-73.47956391
Summit,UT,7/10/2014,2962.12,1003925,UTS9-0928,40.86446,-110.5394
Red Willow,NE,7/10/2014,706.51,1003926,NER9-0912,40.2352,-100.3105
Custer,NE,7/11/2014,667.47,1003927,NERO-1042,41.22095,-99.24727
Christian,IL,7/11/2014,200.91,1003928,ILS9-0919,39.41046,-89.1314
Coos,NH,7/10/2014,259.94,1003929,NHRM-1005,44.62447,-71.54729
Rio Blanco,CO,7/11/2014,1723.46,1003930,CORO-1034,40.11629,-108.282
,MS,7/11/2014,,1003932,MSRF-0001,31.35114859,-90.84966352
Valley,MT,7/10/2014,778.55,1003933,MTLS-1139,48.9226,-106.7994
Sedgwick,CO,7/13/2014,1066.9,1003934,COR9-0904,40.94131522,-102.3414153
Aroostook,ME,7/11/2014,149.32,1003935,MELS-1049,46.57604,-68.08781
Aroostook,ME,7/10/2014,97.95,1003936,MELS-1053,46.1289,-67.84635
Herkimer,NY,7/13/2014,520.62,1003937,NYLS-1116,43.73873,-74.9586
Aiken,SC,7/13/2014,29.76,1003938,SCRO-1014,33.29672,-81.85058
Hinsdale,CO,7/13/2014,2879.47,1003939,COLS-1061,37.75138,-107.3354
Saguache,CO,7/14/2014,2734.37,1003941,COS9-0930,38.18577341,-106.4895271
,NY,7/14/2014,,1003942,NYRF-0005,44.30053929,-75.34429679
St. Lawrence,NY,7/14/2014,120.42,1003943,NYRO-1060,44.33427,-75.47149
Butler,MO,7/11/2014,90.83,1003944,MOLS-1079,36.49841,-90.27924
Wayne,MO,7/10/2014,125.26,1003945,MOR9-0904,37.02754,-90.64282
Lincoln,OK,7/14/2014,243.12,1003946,OKLS-1203,35.92513,-96.71988
Douglas,OR,7/14/2014,579.62,1003947,ORS9-0940,43.1678,-123.6913
Edgefield,SC,7/14/2014,91.16,1003948,SCLS-1033,33.89573,-82.01938
Clarke,AL,7/13/2014,10.24,1003949,ALR9-0906,31.68739652,-88.05213311
Aroostook,ME,7/13/2014,129.1,1003950,MERO-1027,47.28617,-68.11975
,ID,7/11/2014,,1003951,IDRF-0103,43.31666979,-114.1534206
,ID,7/13/2014,,1003952,IDRF-0104,44.34613601,-113.3619078
,ID,7/12/2014,,1003953,IDRF-0105,43.60439272,-114.9209513
Flathead,MT,7/15/2014,917.19,1003954,MTR9-0902,48.07747,-114.0187
Fulton,NY,7/15/2014,273.14,1003955,NYSS-1258,43.03249,-74.65623
Blaine,ID,7/12/2014,1668.48,1003956,IDRO-1040,43.57673,-114.3437
Knox,IN,7/15/2014,118.77,1003957,INR9-0901,38.64279,-87.61438
Dallas,TX,7/15/2014,150.24,1003958,TXSS-1232,32.6441,-96.73725
Emmons,ND,7/15/2014,536.12,1003959,NDLS-1079,46.60633,-100.2571
San Juan,UT,7/14/2014,1195.14,1003960,UTR9-0906,38.3528,-109.7535
Stephenson,IL,7/15/2014,232.38,1003961,ILRO-1024,42.46858,-89.76524
Del Norte,CA,7/15/2014,40.0,1003962,CALS-1106,41.93373,-124.1084
Aroostook,ME,7/14/2014,158.61,1003963,MERO-1026,47.20866,-68.82282
Chouteau,MT,7/15/2014,1294.27,1003964,MTSS-1294,48.15279,-109.8484
Antelope,NE,7/15/2014,540.62,1003965,NELS-1079,42.12492,-98.08295
King,WA,7/15/2014,253.78,1003966,WAR9-0905,47.72892,-121.4276
Pocahontas,WV,7/15/2014,666.32,1003967,WVS9-0923,38.20966,-80.04873
Warren,NY,7/16/2014,85.85,1003968,NYSS-1239,43.30763,-73.63245
Haakon,SD,7/15/2014,613.53,1003969,SDR9-0905,44.04386,-101.4511
Kershaw,SC,7/15/2014,47.94,1003970,SCRM-1002,34.32988,-80.69511
Laurens,SC,7/16/2014,211.9,1003971,SCSS-1057,34.66773,-82.10745
Lawrence,IN,7/16/2014,145.02,1003972,INR9-0902,38.83491,-86.52326
Platte,NE,7/16/2014,469.9,1003973,NELS-1082,41.46241,-97.68192
Houston,GA,7/15/2014,73.71,1003974,GARM-1001,32.61633,-83.54926
Lake,MT,7/16/2014,938.64,1003975,MTR9-0911,47.90948,-113.8707
Douglas,OR,7/15/2014,1345.86,1003976,ORS9-0931,43.09695,-122.4115
Douglas,OR,7/16/2014,852.36,1003977,ORS9-0936,43.10118,-122.8297
Meade,SD,7/16/2014,922.14,1003978,SDLS-1118,44.56442,-103.5312
Collin,TX,7/16/2014,197.6,1003979,TXSS-1224,33.01654,-96.81408
Goshen,WY,7/16/2014,1304.23,1003980,WYRM-1004,42.24723,-104.6466
Jo Daviess,IL,7/15/2014,189.07,1003981,ILRO-1019,42.31862,-90.23431
,LA,7/15/2014,,1003982,LARF-0001,30.66862635,-90.31548522
Aroostook,ME,7/15/2014,285.42,1003983,MES9-0910,46.97556,-69.37838
Elk,PA,7/16/2014,415.64,1003984,PAR9-0901,41.41992,-78.74775
East Feliciana,MS,7/16/2014,74.82,1003985,MSS9-0914,31.00027,-91.0395
Box Elder,UT,7/16/2014,1707.01,1003986,UTS9-0932,41.79318,-113.837
,NY,7/17/2014,,1003987,NYRF-0002,42.50123686,-74.43871603
Sussex,DE,7/16/2014,3.86,1003988,DES9-0905,38.5426015,-75.52310131
Missoula,MT,7/17/2014,1024.07,1003989,MTLS-1145,46.87538,-113.9796
Monroe,GA,7/16/2014,114.67,1003990,GAR9-0911,33.17345556,-83.82379567
Owen,IN,7/17/2014,159.94,1003991,INRO-1026,39.26175,-86.79816
Jo Daviess,IL,7/17/2014,200.29,1003992,ILSS-1120,42.26657,-90.30543
Elko,NV,7/16/2014,1852.55,1003993,NVLS-1074,41.58071,-115.3591
Stark,ND,7/17/2014,716.47,1003994,NDLS-1064,46.78429,-102.6111
Garrett,MD,7/17/2014,724.84,1003998,MDLS-1039,39.40693,-79.4119
Aroostook,ME,7/16/2014,167.25,1003999,MER9-0902,47.15428,-68.94424
Franklin,MS,7/17/2014,93.82,1004000,MSLS-1037,31.58623,-90.81035
Sauk,WI,7/16/2014,243.8,1004001,WIR9-0914,43.56469,-89.65428
Sauk,WI,7/17/2014,244.41,1004002,WIRM-1004,43.56689,-89.69697
Sheridan,WY,7/17/2014,1155.49,1004003,WYR9-0908,44.69584,-106.3383
Johnson,WY,7/17/2014,1411.38,1004004,WYS9-0937,44.03177,-106.6561
Braxton,WV,7/17/2014,240.31,1004005,WVR9-0904,38.58809,-80.89452
Raleigh,WV,7/16/2014,385.54,1004006,WVRO-1007,37.78563,-80.9076
Park,MT,7/17/2014,1556.47,1004007,MTLS-1142,45.93953,-110.5225
Lancaster,SC,7/17/2014,145.16,1004008,SCS9-0923,34.82653,-80.81527
Snohomish,WA,7/16/2014,58.69,1004009,WAR9-0907,47.84358,-121.6946
Saratoga,NY,7/18/2014,100.56,1004010,NYR9-0905,43.24866,-73.74077
Jo Daviess,IL,7/18/2014,259.21,1004011,ILSS-1124,42.3148,-89.98587
Johnson,WY,7/18/2014,1414.02,1004012,WYLS-1102,44.34619,-106.7024
Johnson,WY,7/18/2014,1423.66,1004013,WYLS-1097,44.08912,-106.6737
Mercer,MO,7/16/2014,285.5,1004014,MOLS-1084,40.48774,-93.49837
Schuyler,MO,7/15/2014,238.29,1004015,MORO-1046,40.4814,-92.68618
Carroll,NH,7/15/2014,129.97,1004016,NHS9-0911,43.81879,-71.19524
Corson,SD,7/14/2014,555.88,1004017,SDLS-1119,45.58738,-100.964
Corson,SD,7/15/2014,648.93,1004018,SDR9-0903,45.7285,-101.9844
Windham,CT,7/20/2014,132.92,1004019,CTLS-1044,41.86842,-72.08973
Fremont,WY,7/20/2014,2432.91,1004020,WYS9-0938,43.65474,-109.9079
Essex,NH,7/17/2014,303.31,1004021,NHRM-1001,44.87331,-71.52952
,MT,7/16/2014,,1004022,MTRF-0109,46.86235077,-111.2541388
Dyer,TN,7/20/2014,85.33,1004023,TNLS-1034,35.88958,-89.29055
Gibson,TN,7/20/2014,98.97,1004024,TNS9-0920,36.18743,-89.09897
Weakley,TN,7/20/2014,110.03,1004025,TNSS-1065,36.25843,-88.67338
Gila,AZ,7/21/2014,768.25,1004026,AZRO-1028,33.97792,-111.3063
Caribou,ID,7/16/2014,1793.71,1004027,IDSS-1115,42.43042,-111.7891
Caribou,ID,7/15/2014,1929.21,1004028,IDSS-1143,42.74955,-111.4603
Cassia,ID,7/17/2014,1489.55,1004029,IDLS-1064,42.28978,-114.0244
Elmore,ID,7/7/2014,1964.96,1004030,IDSS-1129,43.7188,-115.3065
Boise,ID,7/9/2014,1829.2,1004031,IDS9-0927,44.20986481,-115.5467376
Elmore,ID,7/8/2014,1759.13,1004032,IDS9-0923,43.6029256,-115.5733393
Hartford,CT,7/21/2014,24.69,1004033,CTRO-1020,41.89034,-72.73278
Sweetwater,WY,7/21/2014,2000.43,1004034,WYRO-1042,42.09641,-109.4537
Wood,WI,7/21/2014,284.99,1004035,WIRM-1003,44.3134,-89.89086
Fayette,TN,7/21/2014,141.81,1004036,TNS9-0926,35.12102,-89.21058
Shelby,TN,7/21/2014,82.46,1004037,TNSS-1064,35.07118,-89.85614
Spartanburg,SC,7/20/2014,202.22,1004038,SCSS-1072,34.99476,-81.85857
Oconee,SC,7/21/2014,441.44,1004039,SCSS-1059,34.80527,-83.16501
New Castle,DE,7/21/2014,42.99,1004040,DER9-0902,39.83429874,-75.57709346
Hill,MT,7/21/2014,779.24,1004041,MTR9-0914,48.45766,-109.9264
St. Joseph,IN,7/22/2014,204.71,1004043,INRM-1004,41.70914,-86.2679
Warren,NJ,7/22/2014,42.91,1004044,NJRM-1003,40.67157,-75.17844
Johnson,WY,7/21/2014,2107.3,1004045,WYS9-0926,44.15839,-106.912
Lake,IL,7/22/2014,222.72,1004046,ILR9-0909,42.21645,-88.18891
Henderson,TX,7/22/2014,123.14,1004047,TXLS-1131,32.33304,-95.74925
Marathon,WI,7/22/2014,353.61,1004048,WIRM-1005,44.94458,-89.62435
Humboldt,CA,7/22/2014,10.59,1004049,CAR9-0908,41.45639606,-123.9355648
Saginaw,MI,7/22/2014,179.49,1004050,MIR9-0906,43.31097,-83.96788
Chester,TN,7/22/2014,118.06,1004051,TNS9-0923,35.50012,-88.63773
Decatur,TN,7/22/2014,150.84,1004052,TNSS-1072,35.48165,-88.06955
Siskiyou,CA,7/22/2014,383.21,1004053,CASS-1297,41.3286,-123.4199
Hill,MT,7/22/2014,842.77,1004054,MTLS-1136,48.44817,-109.7563
Dawson,MT,7/22/2014,646.73,1004055,MTRM-1006,46.88544,-104.9552
Dawson,MT,7/22/2014,647.57,1004056,MTR9-0910,46.86783,-104.9952
